     2.11           OBSERVATION DATA    G (GPS)             RINEX VERSION / TYPE
teqc  2007Jun25                         20090422 20:14:40UTCPGM / RUN BY / DATE
Linux 2.4.20-8|Pentium IV|gcc -static|Linux|486/DX+         COMMENT
BIT 2 OF LLI FLAGS DATA COLLECTED UNDER A/S CONDITION       COMMENT
42800940                                                    MARKER NAME
RVBM                                                        MARKER NUMBER
Max_Kaufman         Geophysical Inst/UAF                    OBSERVER / AGENCY
0220274280          TRIMBLE 5700        NP 1.20 / SP 0.00   REC # / TYPE / VERS
00000000            TRM41249.00                             ANT # / TYPE
 -2803494.4749 -1438103.1325  5528829.1912                  APPROX POSITION XYZ
        0.0000        0.0000        0.0000                  ANTENNA: DELTA H/E/N
     1     1                                                WAVELENGTH FACT L1/2
     5    L1    L2    C1    P2    P1                        # / TYPES OF OBSERV
 SNR is mapped to RINEX snr flag value [0-9]                COMMENT
  L1 & L2: min(max(int(snr_dBHz/6), 0), 9)                  COMMENT
  2009     4     4     0     0   30.0000000     GPS         TIME OF FIRST OBS
                                                            END OF HEADER
 09  4  4  0  0 30.0000000  0 10G20G31G 2G23G30G25G32G 4G13G17
 -26883424.63758 -20937268.28356  20592868.9614   20592863.8204
 -14617856.89857 -11380288.50955  22809951.1884   22809945.6604
  -4310198.75056  -3347830.64054  24439993.5394   24439987.8914
 -27299003.40258 -21250904.91757  20395075.4844   20395068.5274
  -4717421.00456  -3661933.72353  24315637.2194   24315632.1954
  -2887364.74256  -2238413.42953  24369987.8524   24369984.8794
 -17711936.53957 -13781890.25855  22254228.8754   22254223.9884
 -17959639.01258 -13972275.63755  21846677.2664   21846673.1334
 -16950950.94957 -13186873.91955  22070867.6644   22070862.9454
  -4412897.98856  -3431112.17553  25034811.5394   25034808.8714
 09  4  4  0  1  0.0000000  0 10G20G31G 2G23G30G25G32G 4G13G17
 -26840528.30948 -20903842.57346  20601031.8134   20601026.4924
 -14558768.12148 -11334245.30645  22821195.3054   22821190.2384
  -4421012.97346  -3434179.34144  24418906.4144   24418900.1214
 -27347884.05548 -21288993.71347  20385773.9534   20385766.5664
  -4674171.07446  -3628232.51843  24323866.3364   24323862.9614
  -3009498.16446  -2333582.26743  24346746.7114   24346743.7154
 -17640011.27747 -13725844.61345  22267915.4614   22267911.1294
 -18004109.50448 -14006927.96646  21838215.0784   21838210.5554
 -17053382.38747 -13266690.58345  22051375.2114   22051370.8914
  -4322119.29346  -3360375.67243  25052086.2814   25052083.8984
 09  4  4  0  1 30.0000000  0 10G20G31G 2G23G30G25G32G 4G13G17
 -26797166.95748 -20870054.50646  20609283.3984   20609277.6684
 -14499224.71148 -11287847.86345  22832526.4224   22832520.9344
  -4531568.61746  -3520326.54844  24397868.7034   24397862.6954
 -27396287.47748 -21326710.65247  20376563.1724   20376555.8364
  -4630362.67246  -3594096.17143  24332202.4694   24332199.0784
  -3131536.41046  -2428676.88343  24323522.9454   24323520.1054
 -17567830.02047 -13669599.49645  22281651.1484   22281647.0394
 -18048002.04748 -14041129.94645  21829862.5634   21829858.2894
 -17155511.12547 -13346271.39045  22031941.0634   22031936.2424
  -4231208.43446  -3289536.07743  25069385.9224   25069382.8484
 09  4  4  0  2  0.0000000  0  9G20G31G 2G23G30G25G32G 4G13
 -26753341.50048 -20835904.80947  20617623.0004   20617617.9024
 -14439228.80948 -11241097.81245  22843942.8444   22843937.3554
  -4641863.16047  -3606270.35844  24376879.9774   24376874.2304
 -27444212.92648 -21364055.14647  20367443.1804   20367435.8284
  -4585997.55546  -3559525.88643  24340644.3674   24340641.3164
  -3253477.04346  -2523695.41343  24300319.0084   24300315.4384
 -17495393.61347 -13613155.56345  22295435.1414   22295431.3014
 -18091314.77348 -14074880.12345  21821620.5164   21821615.8754
 -17257335.27747 -13425614.84845  22012564.0474   22012559.8444
 09  4  4  0  2 30.0000000  0  9G20G31G 2G23G30G25G32G 4G13
 -26709050.55948 -20801392.39346  20626051.2894   20626046.1174
 -14378780.24648 -11193995.04945  22855445.7034   22855440.4734
  -4751891.17247  -3692006.40244  24355941.7194   24355935.9574
 -27491656.80548 -21401024.39147  20358414.7664   20358407.6254
  -4541075.38346  -3524521.65743  24349192.4304   24349188.8484
  -3375315.25446  -2618634.15343  24277133.1564   24277130.3094
 -17422700.83247 -13556511.84945  22309268.3524   22309264.4184
 -18134044.31647 -14108175.86746  21813489.2974   21813484.9844
 -17358850.81247 -13504717.82045  21993246.5944   21993241.9694
 09  4  4  0  3  0.0000000  0  9G20G31G 2G23G30G25G32G 4G13
 -26664285.99648 -20766510.91746  20634569.7274   20634564.5084
 -14317872.29348 -11146534.33145  22867036.0864   22867030.6684
  -4861640.91447  -3777525.67243  24335057.3754   24335051.0124
 -27538610.12548 -21437611.38847  20349480.0004   20349472.2664
  -4495588.97746  -3489077.72143  24357848.7734   24357845.3204
  -3497039.37146  -2713483.99643  24253970.7194   24253966.8404
 -17349743.57447 -13499662.04945  22323151.8204   22323147.3324
 -18176180.10247 -14141008.93846  21805471.0944   21805466.9804
 -17460047.09447 -13583572.03845  21973989.0864   21973984.7734
 09  4  4  0  3 30.0000000  0  9G20G31G 2G23G30G25G32G 4G13
 -26619045.98048 -20731258.95146  20643178.5394   20643173.0784
 -14256503.97347 -11098714.86445  22878714.3834   22878708.9774
  -4971106.31647  -3862823.38843  24314227.3524   24314220.3484
 -27585068.79748 -21473812.93747  20340638.9924   20340631.5944
  -4449537.76246  -3453193.67343  24366612.0554   24366608.9224
  -3618644.39546  -2808240.99443  24230829.5394   24230826.3634
 -17276520.23847 -13442604.92245  22337085.6094   22337081.4064
 -18217718.30148 -14173376.36846  21797566.6724   21797562.4844
 -17560919.41447 -13662173.81145  21954793.9304   21954789.3794
 09  4  4  0  4  0.0000000  0  9G20G31G 2G23G30G25G32G 4G13
 -26573337.61348 -20695642.04046  20651876.7194   20651871.3634
 -14194683.71547 -11050543.26245  22890478.1334   22890473.0664
  -5080290.80147  -3947902.19943  24293450.0314   24293443.6954
 -27631037.81248 -21509632.93847  20331891.5084   20331884.4104
  -4402929.18447  -3416875.36243  24375481.8914   24375477.7114
  -3740133.43046  -2902907.70243  24207711.1954   24207707.3874
 -17203037.74647 -13385345.86345  22351069.5234   22351064.6604
 -18258662.94148 -14205281.29246  21789774.9924   21789770.7034
 -17661472.04348 -13740526.46845  21935659.4774   21935655.1024
 09  4  4  0  4 30.0000000  0  9G20G31G 2G23G30G25G32G 4G13
 -26527163.16848 -20659661.95946  20660663.2664   20660658.0784
 -14132415.11748 -11002022.29245  22902327.6414   22902322.6524
  -5189193.18047  -4032761.14744  24272725.9384   24272720.0474
 -27676518.07048 -21545072.09347  20323236.6954   20323229.7734
  -4355766.69546  -3380125.36643  24384455.5864   24384452.9184
  -3861505.73847  -2997483.33243  24184614.2194   24184610.7854
 -17129298.68447 -13327886.87445  22365100.9454   22365097.0084
 -18299014.74648 -14236724.24946  21782096.2344   21782092.0084
 -17761704.58248 -13818629.71045  21916585.8204   21916581.3364
 09  4  4  0  5  0.0000000  0  9G20G31G 2G23G30G25G32G 4G13
 -26480526.11748 -20623321.40546  20669537.9064   20669532.8834
 -14069703.36747 -10953156.00545  22914261.6644   22914256.1604
  -5297812.79247  -4117399.76244  24252057.0084   24252050.1024
 -27721511.31648 -21580131.75247  20314674.9064   20314667.8054
  -4308054.59846  -3342947.13143  24393536.1024   24393531.9304
  -3982761.38347  -3091968.17643  24161540.2974   24161536.2504
 -17055306.53147 -13270230.68945  22379181.2424   22379177.3134
 -18338774.72748 -14267706.05046  21774530.3204   21774526.1174
 -17861617.94148 -13896484.23445  21897572.7344   21897568.3484
 09  4  4  0  5 30.0000000  0  9G20G31G 2G23G30G25G32G 4G13
 -26433427.43748 -20586621.13546  20678500.6804   20678495.2704
 -14006549.65647 -10903945.34345  22926279.1414   22926273.8284
  -5406146.78947  -4201815.89944  24231441.4384   24231434.6174
 -27766016.32048 -21614810.96347  20306206.0704   20306198.5004
  -4259794.98046  -3305342.28043  24402720.0784   24402715.2544
  -4103897.41847  -3186359.73743  24138488.9144   24138484.8484
 -16981061.98847 -13212377.79345  22393309.4694   22393305.7544
 -18377941.30148 -14298225.45846  21767077.0314   21767072.6764
 -17961210.04747 -13974088.42745  21878620.9454   21878616.5784
 09  4  4  0  6  0.0000000  0  9G20G31G 2G23G30G25G32G 4G13
 -26385868.16448 -20549561.97746  20687550.7034   20687545.7974
 -13942956.77747 -10854392.45745  22938380.4454   22938375.3284
  -5514192.36347  -4286007.17344  24210880.4064   24210874.2774
 -27810032.73848 -21649109.45947  20297829.8754   20297822.6684
  -4210990.13746  -3267312.49443  24412006.1884   24412003.1374
  -4224911.64147  -3280656.43244  24115460.1414   24115456.6884
 -16906566.28947 -13154329.22345  22407485.9534   22407481.3834
 -18416513.46947 -14328281.67246  21759736.7814   21759732.8324
 -18060479.21147 -14051440.97945  21859730.7114   21859725.9144
 09  4  4  0  6 30.0000000  0  9G20G31G 2G23G30G25G32G 4G13
 -26337851.27348 -20512146.21846  20696688.2034   20696682.8054
 -13878928.87148 -10804500.60845  22950564.3984   22950559.5164
  -5621948.71546  -4369973.17443  24190375.3984   24190369.4774
 -27853561.22348 -21683027.75447  20289546.6804   20289539.3404
  -4161643.87946  -3228860.92343  24421397.0784   24421392.8284
  -4345803.52347  -3374857.75044  24092455.3834   24092451.6094
 -16831822.61747 -13096087.40945  22421708.7894   22421704.7154
 -18454491.94547 -14357875.29846  21752509.8594   21752505.9494
 -18159425.62547 -14128542.03245  21840901.6644   21840897.4964
 09  4  4  0  7  0.0000000  0  9G20G31G 2G23G30G25G32G 4G13
 -26289379.66048 -20474376.13146  20705911.9844   20705906.7934
 -13814469.53147 -10754272.56045  22962830.8134   22962825.7424
  -5729414.55947  -4453712.78444  24169925.2274   24169919.4224
 -27896603.55548 -21716567.22747  20281356.0784   20281348.7894
  -4111759.88345  -3189990.24643  24430889.7034   24430885.5904
  -4466572.35247  -3468963.22944  24069473.1804   24069469.8954
 -16756833.69147 -13037654.50245  22435978.7504   22435974.8524
 -18491877.10247 -14387006.58546  21745395.9384   21745391.5664
 -18258049.46147 -14205391.70745  21822134.3364   21822130.1414
 09  4  4  0  7 30.0000000  0  9G20G31G 2G23G30G25G32G 4G13
 -26240452.71548 -20436251.24646  20715222.3134   20715217.3634
 -13749579.93047 -10703709.26245  22975178.9614   22975173.9414
  -5836585.53946  -4537222.58343  24149531.5474   24149525.6454
 -27939157.34848 -21749726.01147  20273258.2034   20273250.8714
  -4061339.03946  -3150701.33243  24440483.3834   24440480.6214
  -4587214.06647  -3562969.58343  24046516.0084   24046512.3594
 -16681598.99647 -12979030.09245  22450295.7114   22450291.4494
 -18528666.39548 -14415673.56746  21738395.1414   21738390.9144
 -18356347.78147 -14281987.76545  21803428.6484   21803424.1134
 09  4  4  0  8  0.0000000  0  9G20G31G 2G23G30G25G32G 4G13
 -26191074.74647 -20397774.90846  20724618.8054   20724613.4264
 -13684265.48847 -10652814.90445  22987608.0704   22987603.1294
  -5943462.19147  -4620503.02844  24129193.1334   24129187.4024
 -27981224.66048 -21782505.73247  20265253.0234   20265245.6804
  -4010386.53546  -3110998.06843  24450179.6254   24450176.9884
  -4707729.35547  -3656877.48643  24023582.9144   24023579.3754
 -16606122.73047 -12920217.42545  22464657.6724   22464654.0314
 -18564861.73048 -14443877.71546  21731507.3054   21731503.0044
 -18454321.73847 -14358331.06345  21784784.8594   21784780.2544
 09  4  4  0  8 30.0000000  0  9G20G31G 2G23G30G25G32G 4G13
 -26141248.53947 -20358949.30346  20734100.4614   20734095.2704
 -13618530.18748 -10601592.61345  23000116.6644   23000112.0514
  -6050043.24246  -4703553.16344  24108911.1954   24108905.2234
 -28022806.73848 -21814907.34347  20257339.9534   20257332.9534
  -3958906.12945  -3070883.56143  24459976.5864   24459973.6684
  -4828117.45347  -3750686.25743  24000673.4064   24000670.2734
 -16530407.73047 -12861218.74945  22479066.0394   22479062.4344
 -18600463.66848 -14471619.49046  21724732.8594   21724728.2624
 -18551971.07847 -14434421.41045  21766202.5084   21766197.7544
 09  4  4  0  9  0.0000000  0  9G20G31G 2G23G30G25G32G 4G13
 -26090985.60547 -20319783.38346  20743665.3364   20743659.9884
 -13552386.32447 -10550051.95845  23012703.7734   23012698.5394
  -6156336.44546  -4786379.00344  24088684.6334   24088678.4494
 -28063913.38348 -21846938.48147  20249517.8914   20249510.9224
  -3906910.53946  -3030367.50743  24469870.7894   24469867.4184
  -4948386.30947  -3844402.14443  23977786.8284   23977783.5514
 -16454465.46147 -12802042.97645  22493517.7974   22493513.5514
 -18635481.57448 -14498906.18046  21718068.8284   21718064.5164
 -18649304.89148 -14510265.89545  21747680.9844   21747676.2274
 09  4  4  0  9 30.0000000  0  9G20G31G 2G23G30G25G32G 4G13
 -26040287.86747 -20280278.67146  20753312.7114   20753307.4734
 -13485837.36747 -10498195.65545  23025367.8364   23025362.6094
  -6262339.44147  -4868978.73144  24068513.1644   24068506.5234
 -28104544.53548 -21878599.12547  20241785.9694   20241778.8954
  -3854402.37945  -2989452.13343  24479862.3134   24479859.7194
  -5068534.19147  -3938023.76344  23954923.6414   23954919.7344
 -16378297.63747 -12742691.45645  22508011.8594   22508007.8954
 -18669915.16048 -14525737.52746  21711516.3054   21711512.1724
 -18746322.11347 -14585863.69045  21729219.2194   21729214.2274
 09  4  4  0 10  0.0000000  0  9G20G31G 2G23G30G25G32G 4G13
 -25989156.07447 -20240435.73046  20763042.7894   20763037.7194
 -13418885.28147 -10446025.21745  23038108.3284   23038103.1134
  -6368049.35246  -4951350.05344  24048396.8204   24048391.5164
 -28144699.45348 -21909888.66647  20234144.7114   20234138.1724
  -3801383.69546  -2948138.85543  24489951.4454   24489948.9064
  -5188558.40647  -4031549.05343  23932083.3054   23932080.1844
 -16301905.28947 -12683164.97945  22522548.9694   22522545.1294
 -18703762.92248 -14552112.41446  21705075.5474   21705071.1454
 -18843020.62948 -14661213.14545  21710818.0234   21710813.1214
 09  4  4  0 10 30.0000000  0  9G20G31G 2G23G30G25G32G 4G13
 -25937587.53947 -20200252.46746  20772855.8754   20772850.7464
 -13351528.30947 -10393539.27645  23050925.1174   23050920.4614
  -6473459.33247  -5033487.63144  24028338.1724   24028332.2304
 -28184373.55548 -21940803.55047  20226595.1174   20226587.9384
  -3747853.10246  -2906426.72543  24500139.0234   24500134.9064
  -5308452.74247  -4124973.15843  23909268.8364   23909264.2234
 -16225285.60947 -12623461.36045  22537128.5554   22537124.9024
 -18737020.03948 -14578027.04846  21698746.3834   21698742.5904
 -18939395.28947 -14736310.26646  21692478.4224   21692473.7344
 09  4  4  0 11  0.0000000  0  9G20G31G 2G23G30G25G32G 4G13
 -25885582.67247 -20159729.19946  20782752.0704   20782747.0554
 -13283768.29747 -10340739.27745  23063819.7894   23063814.6524
  -6578566.03147  -5115388.91644  24008337.2424   24008331.0274
 -28223565.71148 -21971342.88847  20219137.1804   20219130.1294
  -3693812.19546  -2864316.87643  24510423.8524   24510418.8444
  -5428213.89547  -4218293.49443  23886479.0004   23886475.0514
 -16148438.99247 -12563580.90345  22551752.8984   22551748.7274
 -18769684.98448 -14603480.25846  21692530.7894   21692526.5704
 -19035443.52747 -14811153.01245  21674201.2114   21674196.2624
 09  4  4  0 11 30.0000000  0  9G20G31G 2G23G30G25G32G 4G13
 -25833139.67647 -20118864.53246  20792731.6334   20792726.3284
 -13215604.55547 -10287624.68445  23076790.4924   23076785.5594
  -6683363.26247  -5197049.05544  23988395.0314   23988389.0234
 -28262271.98848 -22001503.61647  20211771.4144   20211764.3634
  -3639259.99246  -2821808.79143  24520803.9844   24520799.8674
  -5547836.43447  -4311505.82343  23863715.2114   23863711.2034
 -16071363.45747 -12503522.08545  22566419.2504   22566415.3914
 -18801753.39148 -14628468.61746  21686428.3204   21686424.1024
 -19131160.61348 -14885737.71946  21655986.5634   21655982.0744
 09  4  4  0 12  0.0000000  0  9G20G31G 2G23G30G25G32G 4G13
 -25780261.34047 -20077660.65146  20802793.9534   20802789.1684
 -13147040.85547 -10234198.44545  23089838.1094   23089833.0314
  -6787850.20747  -5278467.43544  23968511.1094   23968505.4184
 -28300493.57848 -22031286.66047  20204498.1724   20204491.1644
  -3584200.34846  -2778905.12843  24531280.7664   24531277.6254
  -5667319.56646  -4404609.49443  23840978.4534   23840974.0824
 -15994061.83647 -12443287.06945  22581129.1724   22581125.4844
 -18833226.34048 -14652992.99346  21680439.2194   21680435.2384
 -19226546.74647 -14960064.54646  21637835.3834   21637830.8244
 09  4  4  0 12 30.0000000  0  9G20G31G 2G23G30G25G32G 4G13
 -25726948.42648 -20036118.13546  20812939.1414   20812933.9964
 -13078079.28147 -10180462.15945  23102961.7584   23102956.0864
  -6892023.32447  -5359641.25144  23948688.1414   23948681.8324
 -28338229.50848 -22060691.27947  20197317.3204   20197309.9884
  -3528635.29346  -2735607.73143  24541855.0164   24541851.2504
  -5786660.37547  -4497602.33943  23818268.5634   23818264.5744
 -15916534.73047 -12382876.37345  22595882.4224   22595878.5234
 -18864102.14548 -14677052.06746  21674563.6564   21674559.3874
 -19321599.87547 -15034131.88946  21619747.2664   21619742.4844
 09  4  4  0 13  0.0000000  0  9G20G31G 2G23G30G25G32G 4G13
 -25673198.23047 -19994234.88246  20823167.4304   20823162.4534
 -13008718.33647 -10126414.69745  23116160.5164   23116155.1294
  -6995876.23047  -5440565.57444  23928925.5234   23928919.4384
 -28375475.46548 -22089714.08947  20190229.6334   20190222.4224
  -3472562.76246  -2691914.85143  24552524.8754   24552521.1564
  -5905852.50046  -4590479.26944  23795587.0164   23795582.7384
 -15838779.33647 -12322287.77845  22610678.6024   22610674.8204
 -18894376.07848 -14700642.14346  21668802.6724   21668798.4144
 -19416313.95747 -15107935.03346  21601723.5474   21601719.0634
 09  4  4  0 13 30.0000000  0  9G20G31G 2G23G30G25G32G 4G13
 -25619013.37947 -19952012.93346  20833478.3834   20833473.3404
 -12938961.80147 -10072058.96745  23129434.5554   23129429.5044
  -7099407.53547  -5521239.27945  23909223.7974   23909218.2304
 -28412232.30948 -22118355.79047  20183234.8834   20183227.8324
  -3415986.51646  -2647829.50243  24563291.3444   24563287.0554
  -6024894.96147  -4683239.61944  23772934.0004   23772929.7194
 -15760798.26647 -12261523.33645  22625518.2424   22625514.1484
 -18924048.62948 -14723763.61746  21663156.1334   21663152.3444
 -19510689.02047 -15181474.01946  21583764.6644   21583760.2034
 09  4  4  0 14  0.0000000  0  9G20G31G 2G23G30G25G32G 4G13
 -25564395.96147 -19909453.91646  20843871.9384   20843866.9574
 -12868812.92247 -10017397.51645  23142783.6954   23142778.3634
  -7202615.25447  -5601660.85345  23889584.2584   23889578.7424
 -28448500.25848 -22146616.51447  20176333.2894   20176326.2814
  -3358910.21946  -2603354.51743  24574152.9614   24574148.7894
  -6143786.23447  -4775882.14144  23750309.5944   23750305.5434
 -15682593.56247 -12200584.61945  22640399.2894   22640396.3164
 -18953120.13748 -14746416.74346  21657624.1484   21657620.0824
 -19604724.61747 -15254748.47646  21565870.1724   21565865.3954
 09  4  4  0 14 30.0000000  0  9G20G31G 2G23G30G25G32G 4G13
 -25509345.91047 -19866557.77946  20854347.7344   20854342.9384
 -12798272.63347  -9962431.07545  23156206.9144   23156201.6914
  -7305495.19147  -5681826.99245  23870006.5084   23870000.7074
 -28484277.42648 -22174494.83347  20169525.2424   20169518.4184
  -3301334.84046  -2558490.64443  24585109.6254   24585104.9614
  -6262522.64846  -4868403.96344  23727715.3364   23727711.6134
 -15604165.11347 -12139471.56245  22655325.1564   22655320.8714
 -18981588.14548 -14768599.60046  21652206.8984   21652202.8054
 -19698417.87947 -15327756.16746  21548040.8204   21548036.1294
 09  4  4  0 15  0.0000000  0  9G20G31G 2G23G30G25G32G 4G13
 -25453865.34047 -19823326.18246  20864905.3524   20864900.1524
 -12727344.09447  -9907162.09445  23169702.8834   23169699.1054
  -7408045.09847  -5761735.98545  23850492.4454   23850486.1134
 -28519564.32048 -22201991.11247  20162810.4614   20162803.2194
  -3243263.42246  -2513240.12843  24596159.3674   24596155.4774
  -6381102.46546  -4960803.77444  23705149.7664   23705146.3874
 -15525514.66447 -12078185.54245  22670291.5234   22670287.3794
 -19009452.67648 -14790312.22446  21646904.3834   21646900.4964
 -19791767.71147 -15400496.29746  21530277.0944   21530272.5004
 09  4  4  0 15 30.0000000  0  9G20G31G 2G23G30G25G32G 4G13
 -25397953.53547 -19779758.55146  20875544.5784   20875539.7584
 -12656027.91847  -9851591.07445  23183274.6954   23183270.2894
  -7510260.66447  -5841384.45645  23831041.7504   23831035.4494
 -28554358.44948 -22229103.41747  20156189.1954   20156182.0704
  -3184696.71146  -2467603.84743  24607304.4384   24607300.5664
  -6499521.48047  -5053078.26844  23682615.5084   23682611.4184
 -15446641.61347 -12016726.04545  22685301.3754   22685296.0044
 -19036711.10548 -14811552.56146  21641717.3444   21641713.5984
 -19884770.68747 -15472966.11346  21512578.9454   21512574.4064
 09  4  4  0 16  0.0000000  0  9G20G31G 2G23G30G25G32G 4G13
 -25341615.23447 -19735858.58846  20886265.9144   20886260.6174
 -12584329.80547  -9795722.44045  23196918.0784   23196913.9654
  -7612142.53947  -5920772.89144  23811653.5944   23811647.6764
 -28588662.91048 -22255834.16247  20149661.1884   20149653.9654
  -3125640.31246  -2421585.85843  24618542.0004   24618539.1414
  -6617780.49246  -5145228.09144  23660111.1174   23660107.4734
 -15367550.43747 -11955096.59045  22700350.2114   22700346.9694
 -19063365.92648 -14832322.56746  21636645.3674   21636640.9414
 -19977428.71147 -15545167.15246  21494947.0784   21494942.1024
 09  4  4  0 16 30.0000000  0  9G20G31G 2G23G30G25G32G 4G13
 -25284850.98047 -19691626.71346  20897067.8134   20897062.5904
 -12512251.57047  -9739557.59545  23210634.2274   23210630.0704
  -7713687.05147  -5999898.46244  23792330.4924   23792324.6564
 -28622476.38748 -22282182.31847  20143226.9144   20143219.8284
  -3066095.98046  -2375187.74743  24629872.9774   24629869.4344
  -6735876.49247  -5237250.87744  23637638.6334   23637634.5124
 -15288241.57047 -11893297.50545  22715443.2814   22715438.6094
 -19089415.62948 -14852621.03246  21631688.0864   21631684.1564
 -20069739.37547 -15617097.52046  21477380.9454   21477375.7934
 09  4  4  0 17  0.0000000  0  9G20G31G 2G23G30G25G32G 4G13
 -25227658.55548 -19647061.19146  20907951.0704   20907946.0164
 -12439792.30947  -9683095.86645  23224422.7894   23224418.5084
  -7814887.97347  -6078756.28244  23773072.9304   23773066.2584
 -28655794.66048 -22308144.60447  20136886.8754   20136879.5354
  -3006062.73446  -2328408.56743  24641296.7584   24641293.4304
  -6853803.59847  -5329142.07144  23615197.7504   23615193.8244
 -15208712.74247 -11831327.02945  22730577.1954   22730572.8674
 -19114856.21148 -14872444.87146  21626846.7424   21626843.0084
 -20161697.72748 -15688753.36046  21459881.5474   21459877.0124
 09  4  4  0 17 30.0000000  0  9G20G31G 2G23G30G25G32G 4G13
 -25170042.08648 -19602165.25146  20918914.9454   20918909.4144
 -12366957.20347  -9626341.26245  23238283.1644   23238278.3954
  -7915745.11347  -6157346.23944  23753880.0084   23753873.7344
 -28688620.50448 -22333723.18647  20130639.9304   20130632.9304
  -2945546.03546  -2281252.75943  24652813.2114   24652809.1374
  -6971562.16447  -5420901.89844  23592789.7584   23592784.9574
 -15128967.93447 -11769188.22845  22745751.1954   22745747.8594
 -19139689.75848 -14891795.67646  21622121.1414   21622117.4924
 -20253304.89847 -15760135.54946  21442449.2194   21442444.3914
 09  4  4  0 18  0.0000000  0  9G20G31G 2G23G30G25G32G 4G13
 -25112003.32848 -19556940.24746  20929959.2894   20929954.4844
 -12293748.97347  -9569295.89745  23252214.4844   23252209.5634
  -8016256.66047  -6235666.89644  23734752.9844   23734746.9384
 -28720954.04348 -22358918.14747  20124487.4924   20124479.8674
  -2884548.60246  -2233722.29043  24664420.4774   24664416.4184
  -7089150.32447  -5512528.94244  23570412.6024   23570408.5784
 -15049008.74247 -11706882.40445  22760966.9064   22760963.1174
 -19163916.08248 -14910673.33746  21617511.2974   21617507.0354
 -20344559.79747 -15831243.24846  21425083.9694   21425079.4224
 09  4  4  0 18 30.0000000  0  9G20G31G 2G23G30G25G32G 4G13
 -25053541.69948 -19511385.74446  20941084.5784   20941079.3674
 -12220167.97347  -9511960.07245  23266216.5864   23266211.5004
  -8116417.60247  -6313714.34944  23715692.8674   23715687.2194
 -28752792.95348 -22383727.68847  20118428.5474   20118421.4224
  -2823071.11346  -2185817.75643  24676118.9614   24676115.3484
  -7206563.81647  -5604019.94144  23548069.7584   23548065.5514
 -14968834.51247 -11644409.00245  22776223.5084   22776220.2624
 -19187532.71148 -14929075.91546  21613017.0084   21613013.2854
 -20435459.08647 -15902073.84546  21407786.7734   21407781.9964
 09  4  4  0 19  0.0000000  0  9G20G31G 2G23G30G25G32G 4G13
 -24994659.27348 -19465503.33246  20952289.4144   20952284.4264
 -12146217.97747  -9454336.72945  23280288.5314   23280283.8754
  -8216225.95747  -6391487.08144  23696700.8364   23696693.7584
 -28784137.36748 -22408151.90447  20112463.9614   20112456.5084
  -2761116.56246  -2137541.46643  24687909.2424   24687904.8714
  -7323800.74647  -5695373.30944  23525759.7664   23525756.0984
 -14888446.95347 -11581769.37145  22791521.2974   22791516.8834
 -19210539.43748 -14947003.23446  21608639.1724   21608634.8794
 -20526001.75447 -15972626.54946  21390557.2344   21390551.9654
 09  4  4  0 19 30.0000000  0  9G20G31G 2G23G30G25G32G 4G13
 -24935355.82448 -19419292.85346  20963574.3984   20963569.0984
 -12071899.11747  -9396425.96145  23294430.7814   23294426.0394
  -8315677.38347  -6468981.66644  23677775.8594   23677769.1094
 -28814985.46548 -22432189.38247  20106593.8284   20106586.5004
  -2698686.29346  -2088894.55942  24699789.7194   24699785.1724
  -7440857.43747  -5786586.24344  23503484.6564   23503481.0204
 -14807845.89147 -11518963.37645  22806858.8364   22806855.6294
 -19232934.33248 -14964453.80246  21604377.2974   21604373.3094
 -20616184.98847 -16042899.17246  21373395.6334   21373390.6954
 09  4  4  0 20  0.0000000  0  9G20G31G 2G23G30G25G32G 4G13
 -24875634.36348 -19372756.66246  20974939.3134   20974934.2234
 -11997215.94147  -9338231.30145  23308643.1564   23308637.9454
  -8414771.00047  -6546197.48344  23658918.1954   23658912.2074
 -28845338.55148 -22455841.13547  20100817.4144   20100810.5084
  -2635784.43046  -2039880.11943  24711758.9534   24711754.6374
  -7557733.03147  -5877658.04344  23481243.4844   23481239.9614
 -14727034.08647 -11455993.18045  22822237.6804   22822233.3054
 -19254718.46548 -14981428.44446  21600232.0864   21600227.9574
 -20706008.71948 -16112891.66446  21356302.4774   21356298.1254
 09  4  4  0 20 30.0000000  0  9G20G31G 2G23G30G25G32G 4G13
 -24815494.38748 -19325894.36446  20986383.5084   20986378.3014
 -11922168.98847  -9279753.19545  23322923.9144   23322918.8484
  -8513501.96547  -6623130.66244  23640130.1564   23640124.2344
 -28875194.41848 -22479105.44847  20095136.3984   20095129.0554
  -2572411.28946  -1990498.47743  24723818.3674   24723813.9384
  -7674423.32447  -5968585.47844  23459038.6094   23459034.7344
 -14646010.81247 -11392858.18645  22837655.6804   22837651.4454
 -19275889.36348 -14997925.26146  21596203.1724   21596199.1174
 -20795469.57448 -16182601.39246  21339278.9614   21339274.2034
 09  4  4  0 21  0.0000000  0  9G20G31G 2G23G30G25G32G 4G13
 -24754939.83248 -19278708.98946  20997906.2504   20997901.2234
 -11846763.71147  -9220995.83945  23337272.7344   23337268.4964
  -8611870.32047  -6699781.30944  23621411.9534   23621405.3874
 -28904555.17248 -22501983.95147  20089549.0634   20089541.8594
  -2508572.22346  -1940753.70342  24735966.4304   24735962.0234
  -7790928.40247  -6059368.58544  23436868.2814   23436863.9694
 -14564779.83647 -11329561.35045  22853113.1024   22853109.3674
 -19296449.19548 -15013945.90146  21592290.7814   21592286.6564
 -20884568.59048 -16252029.17946  21322323.7974   21322319.3204
 09  4  4  0 21 30.0000000  0  9G20G31G 2G23G30G25G32G 4G13
 -24693969.68448 -19231199.79446  21009508.7034   21009502.9844
 -11770999.82847  -9161959.09145  23351690.1804   23351685.7274
  -8709870.77747  -6776145.29044  23602762.5474   23602756.0274
 -28933418.55948 -22524474.90347  20084056.7974   20084049.3014
  -2444267.57446  -1890646.11443  24748203.1174   24748198.8204
  -7907243.68747  -6150003.80644  23414734.0234   23414730.3524
 -14483340.18047 -11266101.89845  22868610.3674   22868607.1414
 -19316395.05148 -15029488.14246  21588495.5164   21588491.3444
 -20973301.98448 -16321172.03746  21305437.8444   21305433.9064
 09  4  4  0 22  0.0000000  0  9G20G31G 2G23G30G25G32G 4G13
 -24632586.98048 -19183369.11846  21021189.2974   21021184.1884
 -11694880.77347  -9102645.54945  23366175.7814   23366170.3204
  -8807501.88747  -6852221.44044  23584184.3444   23584177.4224
 -28961785.14548 -22546578.73247  20078658.9454   20078651.5354
  -2379501.23846  -1840178.93943  24760527.9924   24760524.0354
  -8023367.99647  -6240490.22244  23392635.9694   23392632.0124
 -14401694.19947 -11202481.70045  22884148.1024   22884143.8594
 -19335727.75448 -15044552.58846  21584816.5944   21584812.3404
 -21061669.55548 -16390029.88646  21288622.3984   21288617.8054
 09  4  4  0 22 30.0000000  0  9G20G31G 2G23G30G25G32G 4G13
 -24570793.23048 -19135218.16246  21032948.0164   21032943.3914
 -11618409.89547  -9043057.87545  23380727.2034   23380721.9844
  -8904761.32847  -6928008.01944  23565676.3284   23565669.7624
 -28989655.32848 -22568295.75447  20073355.3054   20073347.8324
  -2314275.93046  -1789354.01843  24772939.7504   24772935.8594
  -8139299.46947  -6330826.34944  23370575.0784   23370571.1254
 -14319843.63747 -11138702.08745  22899723.1024   22899719.2544
 -19354447.39848 -15059139.33246  21581254.0234   21581250.1914
 -21149670.16848 -16458601.76146  21271876.7424   21271872.1094
 09  4  4  0 23  0.0000000  0  9G20G31G 2G23G30G25G32G 4G13
 -24508587.15648 -19086745.90346  21044785.8364   21044780.5434
 -11541586.93047  -8983195.84445  23395346.7894   23395341.3754
  -9001643.99647  -7003500.97144  23547239.7034   23547233.4414
 -29017026.05148 -22589623.59247  20068146.6954   20068139.4654
  -2248592.08646  -1738171.85242  24785439.5314   24785435.7934
  -8255032.99246  -6421008.26844  23348551.9454   23348547.9184
 -14237786.84047 -11074761.77644  22915337.9774   22915334.1564
 -19372550.77748 -15073245.86846  21577809.2894   21577805.5394
 -21237300.00048 -16526884.72846  21255201.4924   21255196.4924
 09  4  4  0 23 30.0000000  0  9G20G31G 2G23G30G25G32G 4G13
 -24445972.84848 -19037955.54546  21056700.4774   21056696.1644
 -11464416.85947  -8923063.33445  23410031.8054   23410026.4534
  -9098149.43447  -7078699.98344  23528875.9384   23528868.9774
 -29043899.67648 -22610564.07847  20063032.7424   20063025.4884
  -2182454.55546  -1686636.13143  24798024.6334   24798021.1564
  -8370568.82046  -6511036.13044  23326565.4694   23326562.0234
 -14155527.60247 -11010663.71745  22930991.4224   22930987.6094
 -19390040.04348 -15086873.87246  21574481.1954   21574477.0274
 -21324559.77748 -16594879.34646  21238595.8674   21238591.7034
 09  4  4  0 24  0.0000000  0  9G20G31G 2G23G30G25G32G 4G13
 -24382952.67247 -18988848.93146  21068693.2344   21068688.3594
 -11386903.26647  -8862663.15145  23424782.2504   23424776.8054
  -9194275.94147  -7153603.74044  23510583.6804   23510577.2854
 -29070277.22348 -22631118.00447  20058013.3134   20058006.5314
  -2115867.25846  -1634749.98043  24810695.3674   24810692.2814
  -8485905.46146  -6600908.76344  23304617.8674   23304614.3634
 -14073068.19947 -10946409.68545  22946682.7814   22946679.3404
 -19406915.60948 -15100023.66746  21571270.0004   21571265.9104
 -21411449.04747 -16662585.24346  21222061.6174   21222057.0904
 09  4  4  0 24 30.0000000  0  9G20G31G 2G23G30G25G32G 4G13
 -24319524.42647 -18939424.33346  21080763.3204   21080758.3204
 -11309044.87947  -8801994.29445  23439597.8914   23439592.4064
  -9290017.25447  -7228207.33244  23492364.0784   23492358.0474
 -29096154.32848 -22651281.98447  20053089.0004   20053081.6214
  -2048828.94946  -1582512.32743  24823452.1724   24823448.6524
  -8601037.23846  -6690621.82844  23282709.4844   23282705.5044
 -13990406.32847 -10881997.87645  22962412.7584   22962409.6094
 -19423174.03148 -15112692.56746  21568176.0234   21568172.0124
 -21497962.73847 -16729998.49046  21205598.3054   21205593.6524
 09  4  4  0 25  0.0000000  0  8G20G31G 2G23G25G32G 4G13
 -24255689.12148 -18889682.55746  21092910.6564   21092905.7274
 -11230843.78547  -8741058.38045  23454478.6564   23454473.7704
  -9385370.23047  -7302508.35144  23474219.4384   23474213.2034
 -29121530.25048 -22671055.42347  20048260.0394   20048252.6994
  -8715960.87546  -6780172.64144  23260839.4694   23260835.9454
 -13907542.46947 -10817428.67745  22978181.6884   22978178.0204
 -19438813.83248 -15124879.42946  21565200.0004   21565195.9844
 -21584098.76648 -16797117.45646  21189207.4454   21189202.3594
 09  4  4  0 25 30.0000000  0  8G20G31G 2G23G25G32G 4G13
 -24191448.09047 -18839624.62746  21105135.4694   21105130.0124
 -11152302.50847  -8679857.39145  23469424.6954   23469419.5824
  -9480331.94147  -7376504.45244  23456148.8524   23456142.4494
 -29146404.96548 -22690438.31947  20043526.7974   20043519.2664
  -8830674.29746  -6869559.69444  23239010.5234   23239006.8754
 -13824477.94547 -10752703.10045  22993989.1174   22993985.2464
 -19453835.26248 -15136584.45146  21562341.2274   21562337.2934
 -21669855.89547 -16863941.16946  21172888.3594   21172883.8674
 09  4  4  0 26  0.0000000  0  8G20G31G 2G23G25G32G 4G13
 -24126797.43447 -18789247.50546  21117437.5394   21117432.9494
 -11073418.05547  -8618389.00545  23484435.7034   23484430.6524
  -9574894.29347  -7450189.36945  23438154.2344   23438148.3634
 -29170772.93048 -22709426.34247  20038889.4384   20038882.2624
  -8945169.67046  -6958776.76444  23217222.8444   23217219.4654
 -13741208.52747 -10687817.87745  23009833.9534   23009830.3984
 -19468232.44548 -15147803.03846  21559601.4144   21559597.5204
 -21755227.27047 -16930464.29246  21156643.4534   21156638.0514
 09  4  4  0 26 30.0000000  0  8G20G31G 2G23G25G32G 4G13
 -24061732.77348 -18738547.79246  21129819.5004   21129814.4104
 -10994186.90247  -8556650.45545  23499513.4534   23499508.4804
  -9669048.75047  -7523556.46045  23420237.6254   23420231.1884
 -29194627.92648 -22728014.64347  20034350.0084   20034342.9804
  -9059438.65646  -7047817.54844  23195478.0164   23195475.0044
 -13657729.48847 -10622769.32944  23025718.8754   23025715.9304
 -19481999.00048 -15158530.21046  21556982.1564   21556978.1764
 -21840205.29747 -16996680.92746  21140472.2584   21140467.1414
 09  4  4  0 27  0.0000000  0  8G20G31G 2G23G25G32G 4G13
 -23996252.27747 -18687524.04446  21142279.7424   21142274.9454
 -10914608.49647  -8494641.35445  23514656.6174   23514651.7814
  -9762789.71947  -7596601.35745  23402398.5634   23402392.8284
 -29217966.69148 -22746200.69247  20029908.8134   20029901.6254
  -9173475.84046  -7136677.64845  23173777.6094   23173773.9694
 -13574039.04747 -10557556.02445  23041645.0784   23041641.7274
 -19495131.82848 -15168763.58946  21554482.8284   21554478.9534
 -21924785.47347 -17062587.52246  21124376.8134   21124372.1804
 09  4  4  0 27 30.0000000  0  8G20G31G 2G23G25G32G 4G13
 -23930365.89548 -18636184.01746  21154817.4304   21154812.8484
 -10834693.73847  -8432370.14145  23529863.7034   23529858.8554
  -9856122.38347  -7669328.06445  23384638.0704   23384632.0354
 -29240797.39148 -22763990.84547  20025564.2344   20025557.0084
  -9287287.09046  -7225361.73544  23152120.3134   23152115.8524
 -13490146.57847 -10492185.31045  23057610.8134   23057606.3674
 -19507638.91048 -15178509.37046  21552102.8834   21552098.9844
 -22008974.66447 -17128189.45646  21108356.1094   21108351.5164
 09  4  4  0 28  0.0000000  0  8G20G31G 2G23G25G32G 4G13
 -23864074.39847 -18584528.32946  21167432.3754   21167427.3364
 -10754444.41447  -8369838.23044  23545134.6884   23545129.8244
  -9949043.60247  -7741734.17145  23366955.8914   23366949.9534
 -29263119.01648 -22781384.32447  20021316.8284   20021309.2304
  -9400869.36346  -7313867.39144  23130506.1644   23130502.0664
 -13406052.72347 -10426657.67444  23073612.6484   23073608.9264
 -19519519.25848 -15187766.77946  21549842.1094   21549838.0784
 -22092770.83248 -17193485.12146  21092409.9844   21092405.4884
 09  4  4  0 28 30.0000000  0  8G20G31G 2G23G25G32G 4G13
 -23797379.27747 -18532558.10646  21180123.9304   21180119.0474
 -10673862.96547  -8307047.51745  23560468.8364   23560464.0984
 -10041550.72347  -7813817.61345  23349352.5704   23349346.4104
 -29284931.50848 -22798381.06847  20017165.5944   20017158.5474
  -9514220.41446  -7402192.83344  23108935.7034   23108932.2034
 -13321758.48447 -10360973.90544  23089652.6954   23089649.0744
 -19530772.81648 -15196535.79646  21547700.7894   21547696.9344
 -22176172.51248 -17258473.41046  21076539.6254   21076535.0274
 09  4  4  0 29  0.0000000  0  8G20G31G 2G23G25G32G 4G13
 -23730285.66448 -18480277.39646  21192891.8054   21192886.9064
 -10592955.71947  -8244002.93045  23575864.3284   23575859.9964
 -10133644.71147  -7885579.14945  23331827.5234   23331821.4494
 -29306238.82048 -22814984.17247  20013111.2034   20013104.0904
  -9627341.74247  -7490339.30344  23087409.4064   23087406.1294
 -13237269.24647 -10295138.15844  23105730.8364   23105727.1604
 -19541403.25848 -15204819.25246  21545677.5004   21545673.6644
 -22259182.07047 -17323156.16446  21060743.5944   21060738.2304
 09  4  4  0 29 30.0000000  0  8G20G31G 2G23G25G32G 4G13
 -23662794.63747 -18427686.99346  21205734.9304   21205729.6604
 -10511724.66047  -8180706.05645  23591322.7114   23591317.8204
 -10225322.46147  -7957016.32745  23314381.5004   23314375.8364
 -29327039.83248 -22831192.74947  20009153.0004   20009145.5944
  -9740230.22746  -7578304.33144  23065927.5784   23065923.7584
 -13152585.32047 -10229150.74744  23121846.3364   23121842.2274
 -19551409.79748 -15212616.55646  21543773.6884   21543769.6724
 -22341797.50048 -17387531.80646  21045021.8984   21045017.2234
 09  4  4  0 30  0.0000000  0  8G20G31G 2G23G25G32G 4G13
 -23594911.03148 -18374790.70246  21218652.9534   21218647.7934
 -10430174.93747  -8117160.83945  23606841.5554   23606836.0044
 -10316584.55547  -8028129.62845  23297015.5474   23297009.2464
 -29347337.71548 -22847009.27847  20005290.4144   20005283.1454
  -9852887.01647  -7666088.79744  23044489.4924   23044485.9144
 -13067711.33247 -10163015.22944  23137996.7424   23137992.9964
 -19560795.67648 -15219930.23246  21541987.3444   21541983.5744
 -22424020.70748 -17451601.80846  21029375.5554   21029370.6884
 09  4  4  0 30 30.0000000  0  8G20G31G 2G23G25G32G 4G13
 -23526635.42247 -18321588.95246  21231645.4454   21231639.8404
 -10348309.03947  -8053369.24744  23622419.4924   23622414.8914
 -10407427.35547  -8098916.18645  23279728.3134   23279722.0904
 -29367131.39148 -22862432.92447  20001523.6954   20001516.1884
  -9965308.75047  -7753690.10544  23023097.1334   23023092.7384
 -12982647.66447 -10096731.90844  23154184.0784   23154179.9614
 -19569559.95348 -15226759.54846  21540319.7114   21540315.5634
 -22505849.28948 -17515364.31646  21013803.7344   21013799.2424
 09  4  4  0 31  0.0000000  0  8G20G31G 2G23G25G32G 4G13
 -23457968.90648 -18268082.59646  21244712.1724   21244706.8054
 -10266128.99247  -7989332.87344  23638058.0864   23638053.1294
 -10497847.92647  -8169373.75945  23262521.7664   23262515.5634
 -29386420.82448 -22877463.65447  19997853.0634   19997845.6644
 -10077492.75447  -7841106.17744  23001748.6564   23001744.6914
 -12897395.11747 -10030301.43744  23170407.0944   23170403.2664
 -19577702.11748 -15233104.10346  21538770.4924   21538766.3014
 -22587281.43048 -17578817.91246  20998308.0704   20998303.3364
 09  4  4  0 31 30.0000000  0  8G20G31G 2G23G25G32G 4G13
 -23388914.04748 -18214273.61746  21257852.9694   21257847.3284
 -10183638.01247  -7925054.22644  23653755.2034   23653750.8754
 -10587844.84047  -8239501.19245  23245396.1414   23245389.5664
 -29405206.88348 -22892102.14047  19994278.1564   19994270.5864
 -10189437.84046  -7928336.08144  22980446.0234   22980442.2584
 -12811956.04747  -9963725.58444  23186665.9384   23186661.5004
 -19585223.35948 -15238964.79846  21537339.0164   21537334.9804
 -22668317.07448 -17641962.55146  20982887.1564   20982882.5164
 09  4  4  0 32  0.0000000  0  8G20G31G 2G23G25G32G 4G13
 -23319472.09848 -18160163.03146  21271067.1954   21271062.3554
 -10100838.32047  -7860535.01244  23669511.9774   23669506.7384
 -10677414.84847  -8309295.96845  23228351.2584   23228345.3524
 -29423489.09448 -22906348.01247  19990799.4064   19990791.9804
 -10301141.37947  -8015377.72644  22959190.0004   22959185.7234
 -12726331.23847  -9897005.03044  23202958.7734   23202955.8914
 -19592123.12948 -15244341.25046  21536026.0314   21536022.3484
 -22748954.37948 -17704796.80546  20967542.5634   20967537.5044
 09  4  4  0 32 30.0000000  0  8G20G31G 2G23G25G32G 4G13
 -23249645.34448 -18105752.59146  21284354.7894   21284349.6054
 -10017733.27347  -7795777.84844  23685326.2034   23685321.3134
 -10766556.07847  -8378756.63845  23211387.9304   23211381.9654
 -29441268.14148 -22920201.81047  19987416.1884   19987408.8834
 -10412601.57847  -8102229.81044  22937979.2664   22937975.3594
 -12640522.69547  -9830141.27744  23219288.1024   23219284.7034
 -19598402.35948 -15249234.16546  21534831.3054   21534827.0864
 -22829192.69948 -17767320.15446  20952273.6174   20952268.3874
 09  4  4  0 33  0.0000000  0  9G20G31G 2G23G 7G25G32G 4G13
 -23179439.00848 -18051046.37346  21297714.8054   21297709.8794
  -9934328.84447  -7730787.42444  23701198.1414   23701193.0704
 -10855269.40247  -8447883.87745  23194506.5944   23194500.5004
 -29458547.58648 -22933666.31547  19984127.8364   19984120.7424
   -233873.16456   -173950.18653  25086857.6414   25086853.9574
 -10523819.86347  -8188893.34644  22916815.4774   22916811.1454
 -12554535.24247  -9763138.10644  23235650.6884   23235647.5164
 -19604064.65648 -15253646.35646  21533753.7974   21533749.6094
 -22909034.28148 -17829534.35346  20937080.5164   20937075.1914
 09  4  4  0 33 30.0000000  0  9G20G31G 2G23G 7G25G32G 4G13
 -23108862.07848 -17996051.39246  21311144.8134   21311139.6174
  -9850635.23847  -7665571.64844  23717123.7504   23717119.4304
 -10943559.85247  -8516681.58644  23177705.2664   23177699.2894
 -29475334.83248 -22946747.28247  19980933.4224   19980926.0124
   -361219.69946   -273181.18743  25062624.5164   25062621.0864
 -10634801.55147  -8275372.55344  22895696.0634   22895692.3094
 -12468377.71147  -9696002.43044  23252046.1564   23252042.7114
 -19609117.67648 -15257583.77646  21532792.3674   21532787.9144
 -22988485.21548 -17891444.15246  20921961.2114   20921956.2814
 09  4  4  0 34  0.0000000  0  9G20G31G 2G23G 7G25G32G 4G13
 -23037918.00448 -17940770.30746  21324645.2114   21324639.8984
  -9766657.07847  -7600134.15244  23733104.3204   23733099.9184
 -11031427.20347  -8585149.62844  23160984.2734   23160978.1054
 -29491632.01248 -22959446.38047  19977832.0784   19977824.7814
   -488565.23046   -372411.46043  25038391.4774   25038387.7774
 -10745546.25847  -8361667.06944  22874622.3594   22874618.1724
 -12382053.45747  -9628736.82844  23268473.3524   23268469.9654
 -19613563.50048 -15261048.05846  21531946.1954   21531942.0204
 -23067546.30948 -17953050.18446  20906916.5864   20906911.1214
 09  4  4  0 34 30.0000000  0  9G20G31G 2G23G 7G25G32G 4G13
 -21391189.98448 -16657605.63846  21638006.8204   21638001.8794
  -8106978.26247  -6306877.96844  24048930.6414   24048926.1884
  -9543444.60947  -7425682.65244  23444138.0164   23444132.3524
 -27932017.62148 -21744162.43947  20274617.0474   20274609.7814
    959517.66446    755964.83743  25313952.0084   25313949.0784
  -9280627.00847  -7220171.49645  23153387.3284   23153382.9614
 -10720145.45347  -8333743.62244  23584723.6954   23584720.5864
 -18041980.86748 -14036438.21346  21831008.1414   21831004.2774
 -21570792.44148 -16786748.44646  21191739.3594   21191734.1684
 09  4  4  0 35  0.0000000  0  9G20G31G 2G23G 7G25G32G 4G13
 -21319511.91848 -16601752.60946  21651647.3054   21651641.9804
  -8022433.05547  -6240998.58644  24065018.9694   24065014.9574
  -9630452.24647  -7493480.77344  23427581.5394   23427575.0004
 -27947329.68448 -21756093.91447  20271703.0554   20271695.7894
    832185.66046    656745.08443  25289721.3834   25289718.6844
  -9390885.84447  -7306087.42945  23132405.3594   23132401.8444
 -10633486.22347  -8266216.97344  23601214.5944   23601211.0394
 -18045207.54348 -14038952.50646  21830394.3594   21830390.3984
 -21649064.60548 -16847739.72146  21176844.3204   21176839.3554
 09  4  4  0 35 30.0000000  0  9G20G31G 2G23G 7G25G32G 4G13
 -21247464.98448 -16545612.16446  21665357.1254   21665352.0784
  -7937603.62947  -6174897.77144  24081161.8914   24081157.2424
  -9717021.75447  -7560937.50144  23411108.0554   23411101.3634
 -27962144.59048 -21767638.00047  20268883.9614   20268876.7704
    704868.66846    557536.97343  25265495.0784   25265491.1994
  -9500894.01247  -7391808.03745  23111471.7194   23111467.8984
 -10546657.03547  -8198557.95244  23617737.6334   23617734.1644
 -18047820.54748 -14040988.62346  21829897.2504   21829892.8714
 -21726935.93048 -16908418.66646  21162025.9144   21162021.0664
 09  4  4  0 36  0.0000000  0  9G20G31G 2G23G 7G25G32G 4G13
 -21175049.46148 -16489184.50646  21679137.1174   21679132.2934
  -7852491.62147  -6108576.76145  24097358.4844   24097353.9104
  -9803149.61347  -7628050.10244  23394718.1644   23394711.8794
 -27976461.75448 -21778794.22747  20266159.2894   20266152.4924
    577569.52046    458342.99643  25241270.1804   25241266.7814
  -9610648.17647  -7477330.72145  23090586.2274   23090582.1564
 -10459658.12547  -8130766.63744  23634293.2504   23634289.5354
 -18049819.05948 -14042545.90646  21829516.8984   21829512.9844
 -21804404.21948 -16968783.55646  21147284.2344   21147279.4024
 09  4  4  0 36 30.0000000  0  9G20G31G 2G23G 7G25G32G 4G13
 -21102267.89148 -16432471.61446  21692987.2194   21692982.0354
  -7767100.27347  -6042038.07445  24113607.9064   24113603.6024
  -9888834.12547  -7694817.24444  23378413.0394   23378406.1954
 -27990281.96948 -21789563.22147  20263529.2974   20263522.3954
    450289.33646    359163.68143  25217049.7664   25217046.0514
  -9720146.93447  -7562654.38745  23069748.9694   23069745.0554
 -10372491.77747  -8062844.84544  23650880.3284   23650876.8164
 -18051204.35548 -14043625.36846  21829253.1414   21829248.9694
 -21881468.75448 -17028833.83246  21132619.2034   21132614.1914
 09  4  4  0 37  0.0000000  0  9G20G31G 2G23G 7G25G32G 4G13
 -21029121.28148 -16375474.28746  21706906.4384   21706901.6764
  -7681431.55547  -5975283.23444  24129910.3984   24129905.3164
  -9974071.84447  -7761236.22244  23362192.9454   23362186.3244
 -28003604.50448 -21799944.42147  20260994.3674   20260987.1454
    323031.64846    260001.94743  25192833.4774   25192830.0474
  -9829387.16847  -7647776.60145  23048961.4774   23048957.2074
 -10285158.17647  -7994792.76344  23667499.8674   23667495.7774
 -18051975.57048 -14044226.32446  21829106.4304   21829102.3324
 -21958127.73448 -17088568.07546  21118031.7814   21118026.6214
 09  4  4  0 37 30.0000000  0 10G20G16G31G 2G23G 7G25G32G 4G13
 -20955609.95748 -16318192.76246  21720895.5634   21720890.1334
   1431774.45756   1132539.89353  24194844.4384   24194839.0514
  -7595487.03147  -5908313.51344  24146265.0634   24146259.9924
 -10058859.19547  -7827304.27644  23346058.3284   23346051.3484
 -28016428.26248 -21809936.96347  20258554.0234   20258546.4734
    195799.64146    160860.27043  25168621.6724   25168617.9064
  -9938365.54747  -7732694.78945  23028223.3984   23028219.7934
 -10197657.80547  -7926610.67644  23684150.9844   23684147.0004
 -18052132.16048 -14044348.34946  21829076.8674   21829072.7424
 -22034378.47348 -17147984.22146  21103521.7194   21103516.7854
 09  4  4  0 38  0.0000000  0 10G20G16G31G 2G23G 7G25G32G 4G13
 -20881736.38748 -16260628.96046  21734953.0314   21734947.9024
   1340542.44946   1061450.07543  24177483.9144   24177478.2304
  -7509269.69547  -5841131.20244  24162671.4924   24162666.6334
 -10143194.73047  -7893020.27144  23330009.8134   23330003.2734
 -28028754.13748 -21819541.53747  20256208.5634   20256201.3244
     68594.95746     61739.85743  25144415.2424   25144411.7114
 -10047080.61347  -7817407.77445  23007535.5004   23007531.5984
 -10109992.41847  -7858300.05644  23700832.5634   23700828.7154
 -18051674.88348 -14043992.03746  21829163.5944   21829159.5784
 -22110220.69948 -17207082.05446  21089089.4144   21089084.5554
 09  4  4  0 38 30.0000000  0 10G20G16G31G 2G23G 7G25G32G 4G13
 -20807502.57848 -16202784.45546  21749079.2194   21749074.1764
   1249648.31647    990623.51544  24160186.9454   24160181.8244
  -7422782.44947  -5773738.57744  24179129.8364   24179124.8094
 -10227075.98447  -7958382.30144  23314047.9774   23314041.6454
 -28040582.55548 -21828758.48547  20253957.5944   20253950.2774
    -58581.12546    -37358.26644  25120214.1804   25120210.4614
 -10155530.49247  -7901914.12445  22986898.1484   22986894.3284
 -10022163.79347  -7789862.21044  23717545.7504   23717542.2974
 -18050604.72348 -14043158.15646  21829367.4694   21829363.1764
 -22185653.49648 -17265860.84546  21074734.8834   21074730.1254
 09  4  4  0 39  0.0000000  0 10G20G16G31G 2G23G 7G25G32G 4G13
 -20732910.98048 -16144661.14946  21763273.8054   21763268.4924
   1159094.26646    920061.98643  24142955.2814   24142950.2974
  -7336028.82847  -5706138.36544  24195637.8364   24195633.5944
 -10310501.08647  -8023388.84945  23298172.3054   23298166.0634
 -28051914.42648 -21837588.51547  20251801.2344   20251793.7274
   -185727.12546   -136432.97543  25096019.2504   25096014.9494
 -10263713.72747  -7986212.68345  22966311.4534   22966307.5204
  -9934174.02047  -7721298.82844  23734289.9614   23734286.2934
 -18048922.87148 -14041847.62846  21829687.4694   21829683.5004
 -22260676.49648 -17324320.31846  21060458.6334   21060453.6254
 09  4  4  0 39 30.0000000  0 10G20G16G31G 2G23G 7G25G32G 4G13
 -20657958.85548 -16086256.91146  21777536.3524   21777531.4064
   1068887.41446    849770.96443  24125789.4064   24125784.1644
  -7249006.57846  -5638328.84544  24212197.6334   24212192.6174
 -10393463.31647  -8088034.74045  23282385.4304   23282379.1024
 -28062745.54348 -21846028.35247  20249740.3284   20249732.9614
   -312835.82046   -235478.58043  25071831.1484   25071827.5554
 -10371623.54747  -8070298.18545  22945777.0704   22945772.8984
  -9846019.84047  -7652607.29644  23751065.8134   23751061.4064
 -18046625.02748 -14040057.11046  21830124.6564   21830120.7894
 -22335283.65648 -17382455.74746  21046261.2274   21046256.4614
 09  4  4  0 40  0.0000000  0 10G20G16G31G 2G23G 7G25G32G 4G13
 -20582649.36748 -16027574.21846  21791867.5234   21791862.3754
    979029.30147    779751.63544  24108689.1334   24108684.9964
  -7161719.97747  -5570313.33044  24228808.9534   24228802.8714
 -10475961.68047  -8152319.17845  23266686.3054   23266680.1804
 -28073077.55148 -21854079.26647  20247774.0944   20247766.8834
   -439906.73046   -334494.85143  25047650.1884   25047646.2424
 -10479259.47347  -8154170.29145  22925294.7114   22925290.5394
  -9757704.17247  -7583789.93344  23767869.8134   23767867.4574
 -18043713.22748 -14037788.19346  21830678.6644   21830674.5664
 -22409475.41848 -17440267.49046  21032143.1484   21032138.3404
 09  4  4  0 40 30.0000000  0 10G20G16G31G 2G23G 7G25G32G 4G13
 -20506985.28148 -15968615.20145  21806265.9844   21806260.5314
    889521.66047    710005.49043  24091656.8364   24091652.4884
  -7074172.76247  -5502094.74544  24245467.5314   24245462.8164
 -10557994.91847  -8216241.16945  23251075.9224   23251069.4264
 -28082911.75448 -21861742.27947  20245902.6414   20245895.3754
   -566939.09446   -433481.01343  25023476.7974   25023472.8634
 -10586620.45747  -8237828.16245  22904864.3834   22904859.9774
  -9669229.62947  -7514848.78444  23784706.5004   23784703.9414
 -18040189.34048 -14035042.30946  21831349.5784   21831345.4454
 -22483251.92648 -17497755.65746  21018103.5784   21018099.1054
 09  4  4  0 41  0.0000000  0 10G20G16G31G 2G23G 7G25G32G 4G13
 -20430967.99248 -15909380.97846  21820731.6724   21820726.6094
    800368.34046    640535.34943  24074691.7034   24074686.5554
  -6986366.83247  -5433674.58844  24262176.6804   24262171.9384
 -10639560.36347  -8279798.63745  23235554.6174   23235548.0704
 -28092248.09848 -21869017.35847  20244125.8284   20244118.7814
   -693930.19146   -532435.06843  24999310.4304   24999306.7894
 -10693703.65647  -8321269.56245  22884486.9534   22884482.6054
  -9580596.80947  -7445784.32044  23801574.0234   23801570.0274
 -18036053.00848 -14031819.20646  21832136.6564   21832132.4264
 -22556611.38748 -17554918.86046  21004144.0004   21004139.0594
 09  4  4  0 41 30.0000000  0 10G20G16G31G 2G23G 7G25G32G 4G13
 -20354595.44548 -15849869.91946  21835264.7974   21835259.5864
    711575.82447    571346.49844  24057794.9694   24057790.3524
  -6898300.87947  -5365051.76944  24278935.0084   24278930.1844
 -10720651.34047  -8342986.39245  23220123.5084   23220117.3484
 -28101082.71948 -21875901.47247  20242445.0394   20242437.8014
   -820873.88746   -631352.14743  24975154.5554   24975150.6724
 -10800502.99247  -8404489.78645  22864163.5084   22864159.8204
  -9491803.24247  -7376594.55644  23818470.0864   23818466.9184
 -18031301.03948 -14028116.38446  21833040.9774   21833037.0394
 -22629548.57848 -17611753.01546  20990264.5554   20990259.5744
 09  4  4  0 42  0.0000000  0 10G20G16G31G 2G23G 7G25G32G 4G13
 -20277869.09447 -15790083.17346  21849865.1644   21849860.6884
    623146.59047    502440.67844  24040967.3914   24040962.7424
  -6809977.50047  -5296228.38944  24295742.1254   24295737.3634
 -10801265.37947  -8405802.51445  23204783.0634   23204776.7664
 -28109415.93048 -21882394.88547  20240859.1414   20240852.0044
   -947767.84046   -730230.47343  24951007.1724   24951002.7304
 -10907016.38747  -8487487.19445  22843894.7194   22843890.7624
  -9402850.30947  -7307280.65044  23835396.8204   23835393.5664
 -18025934.11348 -14023934.38346  21834062.0704   21834057.8674
 -22702062.49248 -17668257.34846  20976465.4924   20976460.6764
 09  4  4  0 42 30.0000000  0 10G20G16G31G 2G23G 7G25G32G 4G13
 -20200794.30548 -15730024.91046  21864532.1174   21864527.2384
    535080.55547    433817.82144  24024209.1094   24024204.1994
  -6721402.70347  -5227209.09044  24312597.8674   24312592.6994
 -10881403.67247  -8468247.92045  23189533.1644   23189526.9534
 -28117251.23048 -21888500.31347  20239367.9774   20239360.8134
  -1074613.35246   -829071.15743  24926869.5164   24926865.4614
 -11013245.22347  -8570262.89245  22823680.3914   22823676.1254
  -9313742.77047  -7237846.25744  23852353.4844   23852350.2974
 -18019955.98848 -14019276.11446  21835199.6254   21835195.6764
 -22774155.25048 -17724433.50546  20962746.6484   20962741.7194
 09  4  4  0 43  0.0000000  0 10G20G16G31G 2G23G 7G25G32G 4G13
 -20123369.98447 -15669694.29246  21879265.1254   21879260.6604
    447383.03547    365482.16544  24007521.0314   24007515.5204
  -6632576.51247  -5157993.92244  24329500.5314   24329495.8364
 -10961061.23847  -8530318.74245  23174374.7504   23174368.8674
 -28124586.43748 -21894216.06347  20237972.2814   20237964.9384
  -1201405.64846   -927870.21043  24902741.8134   24902737.8324
 -11119184.55147  -8652812.96045  22803520.4384   22803516.5044
  -9224479.24247  -7168290.31944  23869340.3054   23869337.1054
 -18013364.67648 -14014140.04546  21836453.9614   21836449.9694
 -22845823.14548 -17780278.60446  20949109.0474   20949103.9414
 09  4  4  0 43 30.0000000  0 10G20G16G31G 2G23G 7G25G32G 4G13
 -20045598.99247 -15609093.53846  21894065.3674   21894059.9454
    360055.82847    297435.05144  23990902.5474   23990897.6294
  -6543502.39847  -5088585.56944  24346451.0164   24346446.4264
 -11040236.84447  -8592013.98545  23159308.1254   23159302.0554
 -28131423.04348 -21899543.28247  20236671.3134   20236663.7664
  -1328143.47746  -1026626.90643  24878623.3444   24878620.1174
 -11224833.37547  -8735136.68745  22783416.1884   22783411.7894
  -9135062.34447  -7098614.87544  23886355.8524   23886352.4614
 -18006162.07048 -14008527.61946  21837824.4924   21837820.6844
 -22917066.37148 -17835792.78146  20935551.5004   20935546.8834
 09  4  4  0 44  0.0000000  0 10G20G16G31G 2G23G 7G25G32G 4G13
 -19967483.74247 -15548224.53345  21908929.9304   21908924.9024
    273101.68047    229678.56544  23974355.8134   23974350.7304
  -6454183.44147  -5018986.40544  24363447.3984   24363443.1454
 -11118928.59847  -8653332.22345  23144333.3984   23144327.5274
 -28137761.37148 -21904482.24147  20235465.1954   20235458.0354
  -1454824.93446  -1125339.66443  24854516.6254   24854514.0904
 -11330190.01647  -8817232.73845  22763367.6804   22763363.2774
  -9045493.68447  -7028821.18744  23903400.9614   23903397.0904
 -17998348.98048 -14002439.52746  21839311.5164   21839307.0664
 -22987883.92248 -17890975.27546  20922075.2274   20922070.7074
 09  4  4  0 44 30.0000000  0 10G20G16G31G 2G23G 7G25G32G 4G13
 -19889025.39847 -15487088.19145  21923860.0084   21923854.9384
    186523.31647    162214.99343  23957880.2424   23957875.4224
  -6364621.87947  -4949198.23844  24380491.5474   24380485.7894
 -11197133.68447  -8714271.22945  23129451.7664   23129445.8554
 -28143601.51648 -21909032.99947  20234353.6564   20234346.4534
  -1581447.96546  -1224006.89144  24830421.8834   24830418.1524
 -11435251.93047  -8899099.10745  22743374.9454   22743370.4654
  -8955774.31647  -6958910.01944  23920473.2114   23920469.8754
 -17989925.88748 -13995876.09146  21840914.4144   21840910.2424
 -23058274.29748 -17945824.89746  20908680.5944   20908675.8874
 09  4  4  0 45  0.0000000  0 10G20G16G31G 2G23G 7G25G32G 4G13
 -19810228.03947 -15425687.66446  21938854.4224   21938849.7114
    100322.06647     95045.23044  23941477.3754   23941471.9494
  -6274822.28947  -4879224.54344  24397579.4064   24397574.4964
 -11274851.71147  -8774830.71145  23114662.4694   23114656.1524
 -28148945.86748 -21913197.42647  20233336.7664   20233329.7114
  -1708011.95346  -1322628.12444  24806337.7894   24806333.5124
 -11540018.96547  -8980735.72545  22723438.5164   22723434.4844
  -8865907.56247  -6888884.05244  23937573.9534   23937571.2814
 -17980895.32848 -13988839.30246  21842632.8984   21842628.7154
 -23128238.39848 -18000342.37446  20895366.9224   20895362.4344
 09  4  4  0 45 30.0000000  0 10G20G16G31G 2G23G 7G25G32G 4G13
 -19731090.49647 -15364022.06645  21953913.7974   21953908.9574
     14502.93047     28173.20644  23925146.2034   23925141.0904
  -6184784.41447  -4809065.21144  24414713.7584   24414708.6254
 -11352077.66847  -8835006.76445  23099966.6094   23099960.7544
 -28153792.10248 -21916973.71747  20232414.6484   20232407.0704
  -1834512.16046  -1421199.63344  24782264.9224   24782261.2074
 -11644486.34447  -9062138.83045  22703558.7344   22703554.2814
  -8775892.19547  -6818742.26144  23954705.5784   23954700.4614
 -17971255.54748 -13981327.80346  21844467.1414   21844463.4844
 -23197772.59448 -18054524.84346  20882135.1254   20882130.1764
 09  4  4  0 46  0.0000000  0 10G20G16G31G 2G23G 7G25G32G 4G13
 -19651614.39147 -15302092.65445  21969037.3054   21969032.9614
    -70930.92647    -38398.60544  23908888.6484   23908883.9614
  -6094510.60947  -4738721.99244  24431891.3204   24431886.6914
 -11428809.04747  -8894797.42845  23085365.0394   23085359.0274
 -28158140.12148 -21920361.77647  20231587.4224   20231579.8984
  -1960946.18446  -1519719.57044  24758205.6334   24758202.0234
 -11748651.73847  -9143306.62245  22683736.6724   22683732.3554
  -8685729.19147  -6748485.47544  23971861.4694   23971858.0664
 -17961006.73448 -13973341.72546  21846417.7504   21846413.4844
 -23266875.25448 -18108371.06646  20868985.4534   20868980.3554
 09  4  4  0 46 30.0000000  0 10G20G16G31G 2G23G 7G25G32G 4G13
 -19571801.60947 -15239900.90245  21984225.5634   21984220.4304
   -155976.38347   -104667.73944  23892704.6254   23892699.8954
  -6004003.27347  -4668196.81144  24449114.7584   24449110.0634
 -11505043.44947  -8954200.85545  23070858.3594   23070852.1564
 -28161990.49648 -21923362.07947  20230854.5394   20230847.0634
  -2087311.55946  -1618185.99144  24734159.1724   24734155.2544
 -11852512.85947  -9224237.31945  22663972.1414   22663968.2114
  -8595419.84847  -6678114.60944  23989046.7504   23989043.4414
 -17950149.80548 -13964881.79146  21848483.2974   21848479.4614
 -23335545.37548 -18161880.22946  20855917.6564   20855913.0704
 09  4  4  0 47  0.0000000  0 10G20G16G31G 2G23G 7G25G32G 4G13
 -19491655.01247 -15177449.01545  21999476.8674   21999471.9344
   -240632.06247   -170633.18544  23876595.9694   23876590.7704
  -5913266.07847  -4597492.56144  24466381.0944   24466376.4534
 -11580779.87147  -9013216.21845  23056446.0004   23056439.8444
 -28165344.71948 -21925975.75347  20230216.4144   20230209.1294
  -2213607.54746  -1716598.42444  24710125.7194   24710121.9804
 -11956069.01247  -9304930.38245  22644266.2344   22644262.0084
  -8504966.75447  -6607631.75344  24006259.3754   24006256.0044
 -17938686.87948 -13955949.64246  21850664.5314   21850660.7034
 -23403783.18748 -18215052.54746  20842932.5784   20842927.7304
 09  4  4  0 47 30.0000000  0 10G20G16G31G 2G23G 7G25G32G 4G13
 -19411175.57047 -15114737.78445  22014791.5004   22014786.6094
   -324894.48447   -236292.20444  23860561.6884   23860555.9104
  -5822301.21147  -4526610.84544  24483691.5474   24483686.7464
 -11656015.47747  -9071841.33945  23042128.8204   23042123.0904
 -28168202.33248 -21928202.46247  20229672.4384   20229664.9924
  -2339831.12946  -1814954.40644  24686105.8444   24686101.8754
 -12059317.39147  -9385383.62245  22624618.8754   22624614.4144
  -8414370.65647  -6537037.48444  24023500.8054   24023495.8554
 -17926618.02748 -13946545.36046  21852961.3674   21852957.3444
 -23471586.97348 -18267886.65846  20830029.9694   20830025.0634
 09  4  4  0 48  0.0000000  0 10G20G16G31G 2G23G 7G25G32G 4G13
 -19330364.45747 -15051768.11945  22030169.5004   22030164.5784
   -408759.89547   -301641.85844  23844601.7424   23844597.5744
  -5731110.33647  -4455553.06544  24501044.0004   24501039.3364
 -11730747.33247  -9130073.95645  23027908.1954   23027902.1914
 -28170562.69148 -21930041.70747  20229223.2194   20229216.0084
  -2465979.35946  -1913251.67443  24662100.5864   24662096.5944
 -12162255.16847  -9465594.85045  22605030.6484   22605026.2114
  -8323632.18747  -6466332.22444  24040767.3754   24040763.3484
 -17913943.36348 -13936669.00746  21855373.3594   21855369.3984
 -23538954.79748 -18320381.04247  20817210.0554   20817205.0944
 09  4  4  0 48 30.0000000  0 10G20G16G31G 2G23G 7G25G32G 4G13
 -19249224.62947 -14988542.29445  22045610.1804   22045604.9574
   -492226.84447   -366681.03844  23828718.6724   23828713.4804
  -5639697.17247  -4384322.06544  24518439.8524   24518434.5984
 -11804973.84047  -9187912.75545  23013783.2734   23013777.3674
 -28172427.90648 -21931495.12047  20228868.2894   20228861.1094
  -2592051.30146  -2011489.47443  24638110.2034   24638105.7854
 -12264881.29747  -9545563.22045  22585501.3914   22585497.0904
  -8232753.84847  -6395518.00044  24058059.7504   24058057.1684
 -17900664.71548 -13926322.02546  21857900.1094   21857896.2544
 -23605886.57448 -18372535.66346  20804473.4224   20804468.3524
 09  4  4  0 49  0.0000000  0 10G20G16G31G 2G23G 7G25G32G 4G13
 -19167757.44147 -14925061.37845  22061112.5394   22061107.3874
   -575291.89147   -431407.01844  23812911.6334   23812906.3484
  -5548063.54347  -4312919.29744  24535877.0474   24535872.4924
 -11878692.23847  -9245355.65245  22999755.1334   22999748.7114
 -28173797.61748 -21932562.42647  20228607.3594   20228600.5664
  -2718044.05546  -2109665.63644  24614134.3834   24614130.6644
 -12367193.07047  -9625286.64745  22566032.1884   22566027.8204
  -8141736.28946  -6324595.30644  24075379.1024   24075376.9884
 -17886782.35248 -13915504.60946  21860542.0164   21860538.1484
 -23672380.87548 -18424349.38946  20791820.0554   20791815.0664
 09  4  4  0 49 30.0000000  0 10G20G16G31G 2G23G 7G25G32G 4G13
 -19085964.34047 -14861326.50845  22076677.1564   22076672.0904
   -657952.31247   -495817.68044  23797181.0944   23797177.0164
  -5456211.66447  -4241346.45644  24553356.6644   24553351.0634
 -11951900.68047  -9302401.15145  22985824.0234   22985817.6914
 -28174672.00448 -21933243.76847  20228441.2114   20228433.8754
  -2843954.91846  -2207777.95943  24590174.2034   24590170.5514
 -12469188.27347  -9704763.37045  22546623.0944   22546618.6484
  -8050580.78547  -6253565.09444  24092726.9924   24092723.2194
 -17872296.98048 -13904217.32346  21863298.5704   21863294.5784
 -23738436.31248 -18475821.14346  20779249.9304   20779245.2504
 09  4  4  0 50  0.0000000  0 10G20G16G31G 2G23G 7G25G32G 4G13
 -19003844.93047 -14797337.39345  22092304.2584   22092299.1214
   -740202.82447   -559908.90944  23781530.9844   23781525.1524
  -5364141.98446  -4169603.89144  24570876.0314   24570871.7974
 -12024594.27347  -9359045.51645  22971990.7424   22971984.5704
 -28175049.27048 -21933537.73347  20228369.2424   20228362.0634
  -2969779.61346  -2305823.11843  24566231.1334   24566226.6414
 -12570862.66047  -9783990.13445  22527274.8674   22527270.3754
  -7959286.44147  -6182426.71844  24110100.0864   24110096.1214
 -17857207.50448 -13892459.29946  21866169.8984   21866165.6884
 -23804049.67248 -18526948.42446  20766764.1484   20766759.2934
 09  4  4  0 50 30.0000000  0 10G20G16G31G 2G23G 7G25G32G 4G13
 -18921400.78948 -14733095.21245  22107992.8674   22107987.4614
   -822040.71147   -623678.68944  23765956.5474   23765952.1414
  -5271857.03146  -4097693.59144  24588437.7664   24588432.9924
 -12096770.82447  -9415286.96745  22958256.2504   22958250.0824
 -28174929.65648 -21933444.53347  20228392.1884   20228384.9224
  -3095516.03546  -2403799.47344  24542303.7664   24542299.7034
 -12672214.04747  -9862965.19145  22507988.3834   22507984.6134
  -7867854.59846  -6111181.21144  24127497.9844   24127495.8754
 -17841514.70348 -13880231.15746  21869155.8754   21869151.7814
 -23869219.96548 -18577730.45646  20754362.6644   20754357.5164
 09  4  4  0 51  0.0000000  0 10G20G16G31G 2G23G 7G25G32G 4G13
 -18838637.49647 -14668604.37345  22123742.4304   22123736.9574
   -903466.98847   -687127.63444  23750462.4614   23750456.8714
  -5179362.69146  -4025620.13544  24606039.4454   24606034.2464
 -12168431.59447  -9471126.50445  22944619.5944   22944613.5394
 -28174317.22348 -21932967.30347  20228508.6094   20228501.3714
  -3221165.39546  -2501708.02544  24518393.8834   24518389.2664
 -12773244.00847  -9941689.80645  22488763.0704   22488758.8054
  -7776290.06246  -6039832.28944  24144923.1414   24144919.2854
 -17825222.91448 -13867536.26746  21872256.2504   21872252.5664
 -23933949.69548 -18628169.19446  20742045.0784   20742039.8594
 09  4  4  0 51 30.0000000  0 10G20G16G31G 2G23G 7G25G32G 4G13
 -18755554.31247 -14603864.25045  22139552.3134   22139547.3874
   -984476.11347   -750251.64244  23735046.4224   23735040.7624
  -5086659.19546  -3953383.69844  24623680.1804   24623675.6644
 -12239572.10547  -9526560.65845  22931082.1334   22931075.8134
 -28173210.00848 -21932104.53647  20228719.2424   20228712.1374
  -3346722.94546  -2599545.04144  24494500.4454   24494496.9574
 -12873947.90247 -10020160.32645  22469599.4224   22469595.3794
  -7684591.86346  -5968379.26044  24162371.6174   24162369.3444
 -17808331.03548 -13854373.77646  21875470.9694   21875466.9414
 -23998234.94948 -18678261.58346  20729812.0314   20729807.0124
 09  4  4  0 52  0.0000000  0 10G20G16G31G 2G23G 7G25G32G 4G13
 -18672153.58248 -14538876.68845  22155422.8284   22155417.7734
  -1065066.21147   -813049.06144  23719710.7274   23719705.9454
  -4993749.39846  -3880986.47244  24641360.4774   24641355.6484
 -12310190.68747  -9581588.10745  22917643.7274   22917637.2934
 -28171608.85248 -21930856.88247  20229024.1724   20229016.7424
  -3472186.68746  -2697308.93844  24470625.6334   24470621.6334
 -12974324.25447 -10098375.63345  22450498.9384   22450494.5554
  -7592761.84446  -5896823.41343  24179846.5004   24179844.0554
 -17790840.09048 -13840744.48146  21878799.1644   21878795.5474
 -24062075.73448 -18728007.63546  20717663.5004   20717658.6764
 09  4  4  0 52 30.0000000  0 10G20G16G31G 2G23G 7G25G32G 4G13
 -18588437.19148 -14473643.15645  22171353.8134   22171348.6884
  -1145234.26647   -875517.59744  23704455.6174   23704449.7704
  -4900635.59846  -3808430.29344  24659078.2894   24659074.7234
 -12380284.82047  -9636206.91945  22904305.4694   22904298.8914
 -28169514.08648 -21929224.60147  20229422.7584   20229415.5044
  -3597554.77746  -2794998.27044  24446768.7194   24446764.8914
 -13074370.90647 -10176334.01445  22431460.5394   22431456.4694
  -7500801.07846  -5825165.79644  24197346.2584   24197343.5434
 -17772751.40648 -13826649.40746  21882241.2344   21882237.3794
 -24125470.79348 -18777406.36146  20705599.7424   20705594.6454
 09  4  4  0 53  0.0000000  0 10G20G16G31G 2G23G 7G25G32G 4G13
 -18504407.13748 -14408165.21145  22187344.6414   22187339.3204
  -1224977.98847   -937655.54944  23689280.7814   23689275.5234
  -4807320.65646  -3735717.44344  24676836.2814   24676832.2664
 -12449852.83647  -9690415.73745  22891067.0944   22891060.4384
 -28166926.68448 -21927208.43347  20229915.3834   20229908.3094
  -3722825.16046  -2892611.46044  24422930.3054   24422926.6564
 -13174086.09047 -10254034.14145  22412485.4534   22412480.8524
  -7408711.48846  -5753407.74244  24214870.2664   24214867.8754
 -17754066.31648 -13812089.60846  21885797.2814   21885793.2424
 -24188419.61748 -18826457.38947  20693620.9774   20693616.1294
 09  4  4  0 53 30.0000000  0 11G20G16G31G 2G23G 7G25G32G 4G13G29
 -18420067.88748 -14342446.32945  22203393.2194   22203388.1994
  -1304297.14147   -999462.61844  23674186.4844   23674180.7894
  -4713809.58646  -3662851.72044  24694630.9224   24694626.3014
 -12518895.21947  -9744214.99745  22877928.7974   22877922.2814
 -28163849.48848 -21924810.62347  20230500.7034   20230493.1374
  -3847997.87146  -2990148.57544  24399111.2344   24399107.4574
 -13273470.27747 -10331476.31945  22393573.0164   22393568.6054
  -7316496.69146  -5681552.15743  24232417.9614   24232415.9614
 -17734788.21948 -13797067.73146  21889465.7114   21889461.8954
 -24250923.26248 -18875161.51346  20681727.0234   20681722.1604
   1501480.57455   1177472.31853  25389118.2974   25389115.8324
 09  4  4  0 54  0.0000000  0 11G20G16G31G 2G23G 7G25G32G 4G13G29
 -18335426.08647 -14276491.71245  22219500.0394   22219495.5314
  -1383193.92647  -1060940.61444  23659172.6564   23659167.5514
  -4620110.03146  -3589839.12644  24712460.6334   24712456.3754
 -12587414.66447  -9797606.77245  22864889.8444   22864883.1174
 -28160288.00848 -21922035.44647  20231178.5634   20231171.7584
  -3973075.72747  -3087611.79344  24375309.7034   24375305.2344
 -13372526.48047 -10408662.94345  22374723.2734   22374718.6484
  -7224163.17246  -5609604.06043  24249989.9774   24249985.9654
 -17714923.32447 -13781588.59346  21893245.7504   21893242.0944
 -24312985.89148 -18923521.98746  20669916.5164   20669911.7854
   1431711.10245   1123106.48343  25375843.5634   25375839.4224
 09  4  4  0 54 30.0000000  0 11G20G16G31G 2G23G 7G25G32G 4G13G29
 -18250489.00847 -14210307.01145  22235663.5394   22235658.4884
  -1461671.39847  -1122091.86044  23644238.9614   23644233.8204
  -4526229.50046  -3516685.48644  24730326.5314   24730321.0704
 -12655414.82847  -9850593.89345  22851949.7894   22851943.3794
 -28156247.97348 -21918887.37547  20231947.2894   20231939.7894
  -4098061.89147  -3185003.49444  24351525.2974   24351521.4264
 -13471257.97747 -10485596.55245  22355935.4384   22355931.0394
  -7131717.68446  -5537568.67643  24267580.3444   24267578.3874
 -17694477.94548 -13765657.14246  21897136.0234   21897132.3054
 -24374612.05148 -18971542.35246  20658189.6094   20658184.5784
   1362363.37946   1069069.41043  25362645.8284   25362643.0354
 09  4  4  0 55  0.0000000  0 11G20G16G31G 2G23G 7G25G32G 4G13G29
 -18165261.42648 -14143895.94145  22251881.1094   22251876.6954
  -1539729.88747  -1182916.64744  23629384.1334   23629380.1604
  -4432173.76246  -3443395.29844  24748224.2194   24748219.1604
 -12722896.09047  -9903176.68445  22839108.5554   22839102.1054
 -28151733.12948 -21915369.30847  20232806.3284   20232799.2194
  -4222957.01646  -3282324.32344  24327758.5004   24327754.6484
 -13569665.85247 -10562277.97945  22337208.8914   22337204.6294
  -7039164.49646  -5465449.43943  24285192.8444   24285189.9614
 -17673456.37947 -13749276.72146  21901136.6954   21901132.8364
 -24435803.64148 -19019224.10446  20646545.3204   20646540.2234
   1293436.17645   1015359.92643  25349528.2274   25349526.3634
 09  4  4  0 55 30.0000000  0 11G20G16G31G 2G23G 7G25G32G 4G13G29
 -18079741.48847 -14077257.04745  22268155.3524   22268150.6994
  -1617362.62547  -1243409.62744  23614612.9384   23614606.7774
  -4337941.29346  -3369967.48543  24766156.0004   24766150.4224
 -12789852.72747  -9955350.67345  22826367.4694   22826360.4064
 -28146740.08648 -21911478.63047  20233756.4224   20233749.0554
  -4347755.45346  -3379569.81744  24304010.1174   24304006.0084
 -13667744.26247 -10638702.67245  22318545.1644   22318540.8524
  -6946501.27346  -5393244.43543  24302826.7814   24302823.5004
 -17651855.96948 -13732445.24346  21905247.2034   21905243.0164
 -24496555.96948 -19066563.56346  20634984.4384   20634979.4184
   1224935.68846    961982.84743  25336495.2344   25336490.9064
 09  4  4  0 56  0.0000000  0 11G20G16G31G 2G23G 7G25G32G 4G13G29
 -17993929.78148 -14010390.80945  22284484.9144   22284479.7974
  -1694565.75047  -1303567.89944  23599920.7814   23599915.3364
  -4243533.30546  -3296402.80143  24784122.8524   24784115.4884
 -12856281.35247 -10007113.24845  22813726.3054   22813719.5354
 -28141268.08648 -21907214.74147  20234797.8284   20234790.5984
  -4472453.18046  -3476736.80144  24280280.8524   24280276.1994
 -13765489.68447 -10714867.90645  22299944.8674   22299940.7624
  -6853727.98047  -5320953.54943  24320481.6644   24320477.3594
 -17629676.34048 -13715162.42646  21909467.6804   21909463.5744
 -24556866.67648 -19113558.90846  20623507.7664   20623502.7854
   1156865.39145    908941.11243  25323540.3754   25323537.9104
 09  4  4  0 56 30.0000000  0 11G20G16G31G 2G23G 7G25G32G 4G13G29
 -17907823.87147 -13943295.32645  22300870.2114   22300865.3834
  -1771332.76647  -1363386.34744  23585312.5944   23585307.2034
  -4148948.26646  -3222700.21544  24802120.1334   24802114.3054
 -12922175.93447 -10058459.65745  22801187.0314   22801180.3404
 -28135313.81648 -21902575.04447  20235931.1414   20235923.6294
  -4597043.89146  -3573820.39544  24256571.5704   24256567.9104
 -13862896.35547 -10790769.17845  22281408.9534   22281404.6724
  -6760841.90247  -5248574.90043  24338157.7894   24338153.3714
 -17606914.80148 -13697426.17346  21913799.0314   21913794.9344
 -24616730.75448 -19160206.22946  20612115.7814   20612110.9964
   1089231.60546    856239.48743  25310670.8444   25310666.9224
 09  4  4  0 57  0.0000000  0 11G20G16G31G 2G23G 7G25G32G 4G13G29
 -17821423.72347 -13875970.56745  22317312.2814   22317307.3634
  -1847658.84447  -1422861.14444  23570787.6644   23570782.9924
  -4054186.25046  -3148859.71343  24820153.0474   24820147.4804
 -12987532.23447 -10109386.65345  22788750.1094   22788743.4844
 -28128875.28948 -21897558.01447  20237156.1954   20237148.8404
  -4721523.39846  -3670817.36244  24232884.0944   24232879.8914
 -13959959.94147 -10866403.11745  22262938.2584   22262933.9064
  -6667842.41846  -5176107.85343  24355853.4844   24355850.9574
 -17583570.34447 -13679235.70546  21918241.0474   21918237.3834
 -24676145.00448 -19206503.02146  20600810.0634   20600804.6024
   1022038.57846    803881.34843  25297884.5864   25297880.7074
 09  4  4  0 57 30.0000000  0 11G20G16G31G 2G23G 7G25G32G 4G13G29
 -17734731.48847 -13808418.21645  22333809.1564   22333804.1054
  -1923541.66447  -1481990.60144  23556349.1644   23556342.8324
  -3959250.19146  -3074883.62644  24838219.5704   24838214.1214
 -13052348.68047 -10159892.96745  22776416.0394   22776409.5634
 -28121953.54748 -21892164.44647  20238473.2034   20238466.0824
  -4845889.78946  -3767726.21744  24209218.6644   24209213.9534
 -14056679.07847 -10941768.63145  22244533.3134   22244528.8094
  -6574731.11746  -5103553.66443  24373572.7034   24373569.1414
 -17559644.90647 -13660592.52946  21922794.4064   21922790.6174
 -24735109.32048 -19252449.22846  20589589.2274   20589584.0984
    955287.71145    751867.75943  25285182.4614   25285178.6644
 09  4  4  0 58  0.0000000  0 11G20G16G31G 2G23G 7G25G32G 4G13G29
 -17647750.04747 -13740640.48545  22350361.0004   22350355.9924
  -1998979.57447  -1540773.39044  23541992.4144   23541987.2974
  -3864143.45746  -3000774.45944  24856316.7344   24856312.5394
 -13116624.31647 -10209977.87245  22764184.7274   22764178.2664
 -28114550.07448 -21886395.50747  20239882.0944   20239874.8364
  -4970141.58246  -3864545.72744  24185572.7114   24185569.0274
 -14153052.48047 -11016864.77046  22226193.7344   22226189.5234
  -6481510.44146  -5030914.25243  24391310.8284   24391308.8094
 -17535140.18747 -13641497.96146  21927457.4844   21927453.3914
 -24793623.11748 -19298044.38346  20578454.4454   20578449.3094
    888980.50446    700199.81343  25272563.6334   25272560.2504
 09  4  4  0 58 30.0000000  0 11G20G16G31G 2G23G 7G25G32G 4G13G29
 -17560480.07047 -13672637.95145  22366968.0864   22366963.1994
  -2073969.35947  -1599206.98144  23527722.0234   23527717.4144
  -3768867.75446  -2926533.75144  24874447.4384   24874443.3594
 -13180356.16447 -10259639.04445  22752056.8674   22752050.1564
 -28106664.85548 -21880251.18247  20241382.3914   20241375.4384
  -5094275.82846  -3961273.66044  24161951.9454   24161947.4144
 -14249077.53147 -11091689.45045  22207920.8674   22207916.5314
  -6388180.69546  -4958189.84444  24409071.6024   24409068.7894
 -17510057.05947 -13621952.68346  21932230.6954   21932226.6564
 -24851685.12148 -19343287.48746  20567405.6414   20567400.4774
    823119.68846    648879.80243  25260031.4384   25260028.3634
 09  4  4  0 59  0.0000000  0 11G20G16G31G 2G23G 7G25G32G 4G13G29
 -17472922.50047 -13604411.29345  22383629.6254   22383624.9104
  -2148506.99247  -1657288.24944  23513538.7734   23513533.2734
  -3673424.09447  -2852162.12644  24892611.3674   24892605.8874
 -13243540.93747 -10308873.91445  22740033.0864   22740026.7114
 -28098297.05948 -21873730.81547  20242975.0634   20242967.3674
  -5218288.84846  -4057907.12044  24138352.6174   24138348.6954
 -14344750.73447 -11166239.96946  22189715.0004   22189710.5984
  -6294742.00847  -4885380.58143  24426854.2584   24426849.4844
 -17484395.26647 -13601956.50146  21937114.2664   21937109.9804
 -24909292.80548 -19388176.57246  20556443.2274   20556437.9184
    757708.71146    597910.21843  25247583.1484   25247580.4384
 09  4  4  0 59 30.0000000  0 11G20G16G31G 2G23G 7G25G32G 4G13G29
 -17385078.89847 -13535961.76845  22400345.7814   22400340.7704
  -2222590.07047  -1715015.28844  23499441.2974   23499435.6604
  -3577814.97746  -2777661.55043  24910802.9534   24910800.2814
 -13306176.90247 -10357681.15945  22728113.7584   22728107.3404
 -28089447.14548 -21866834.78147  20244658.9144   20244651.4614
  -5342178.20746  -4154444.20544  24114777.3834   24114773.3554
 -14440070.28147 -11240514.91345  22171576.2974   22171571.8714
  -6201195.91446  -4812487.50843  24444652.6414   24444651.4024
 -17458156.02347 -13581510.36646  21942107.1724   21942102.9224
 -24966445.57048 -19432711.17347  20545567.3444   20545562.5004
    692749.33246    547292.59543  25235222.4924   25235218.8324
 09  4  4  1  0  0.0000000  0 11G20G16G31G 2G23G 7G25G32G 4G13G29
 -17296948.77747 -13467288.97645  22417116.3444   22417111.3524
  -2296213.35547  -1772384.04444  23485430.9454   23485425.5084
  -3482040.12546  -2703031.88844  24929030.0944   24929025.5944
 -13368259.48447 -10406057.18445  22716299.8914   22716293.6954
 -28080113.30548 -21859561.65547  20246434.9304   20246427.8484
  -5465939.45746  -4250881.48844  24091226.5234   24091221.8794
 -14535031.73447 -11314510.82746  22153505.3364   22153501.5124
  -6107541.08646  -4739509.84543  24462476.0314   24462473.3404
 -17431338.41047 -13560613.54446  21947210.4694   21947206.2234
 -25023139.94548 -19476888.59746  20534778.6804   20534773.5204
    628246.70346    497030.81643  25222947.6564   25222944.3244
 09  4  4  1  0 30.0000000  0 11G20G16G31G 2G23G 7G25G32G 4G13G29
 -17208537.01647 -13398396.74945  22433940.2974   22433935.6454
  -2369377.04347  -1829394.70144  23471508.1954   23471502.8444
  -3386104.89846  -2628277.17543  24947284.9844   24947280.8914
 -13429789.31647 -10454002.50945  22704591.4224   22704584.2114
 -28070298.93748 -21851914.09447  20248302.6024   20248295.4224
  -5589573.02046  -4347219.25444  24067699.8204   24067695.3914
 -14629635.97348 -11388228.38746  22135502.8444   22135498.4184
  -6013781.79546  -4666450.71343  24480318.1564   24480314.9304
 -17403946.52747 -13539269.24346  21952422.6644   21952419.1294
 -25079377.64548 -19520710.16446  20524076.9844   20524072.0234
    564199.68846    447123.99643  25210760.8834   25210756.7504
 09  4  4  1  1  0.0000000  0 11G20G16G31G 2G23G 7G25G32G 4G13G29
 -17119845.75047 -13329286.68745  22450817.7424   22450812.4534
  -2442079.34447  -1886045.84344  23457673.2344   23457667.7304
  -3290012.14846  -2553399.77943  24965570.7894   24965566.6804
 -13490765.09447 -10501516.07945  22692988.0234   22692981.5474
 -28060005.03148 -21843892.86847  20250261.7344   20250254.2814
  -5713077.31247  -4443456.26544  24044197.4304   24044193.1374
 -14723881.54348 -11461666.47346  22117568.6954   22117564.2934
  -5919919.75446  -4593311.56643  24498179.3364   24498176.2814
 -17375982.37147 -13517479.01346  21957744.3914   21957740.1564
 -25135158.17248 -19564175.49746  20513462.5004   20513457.1294
    500609.81646    397573.52343  25198659.3204   25198655.8634
 09  4  4  1  1 30.0000000  0 11G20G16G31G 2G23G 7G25G32G 4G13G29
 -17030875.33647 -13259959.12545  22467748.3364   22467743.2704
  -2514316.30547  -1942334.37344  23443927.5474   23443922.1134
  -3193762.56246  -2478400.11243  24983886.4844   24983881.7894
 -13551183.38747 -10548595.25245  22681490.5704   22681484.2704
 -28049230.72348 -21835497.29847  20252311.7034   20252304.6174
  -5836448.18047  -4539589.32344  24020720.7344   24020716.5164
 -14817764.95748 -11534822.36446  22099703.3204   22099699.0634
  -5825954.96945  -4520092.25743  24516057.0554   24516057.8324
 -17347445.53948 -13495242.54346  21963174.5944   21963171.0664
 -25190479.36748 -19607282.91147  20502935.0784   20502930.0084
    437480.71146    348382.00243  25186645.6804   25186642.3794
 09  4  4  1  2  0.0000000  0 11G20G16G31G 2G23G 7G25G32G 4G13G29
 -16941624.54347 -13190413.08245  22484732.3674   22484727.0204
  -2586082.38347  -1998255.96244  23430270.0554   23430265.3244
  -3097355.90646  -2403278.08343  25002231.6804   25002227.6134
 -13611039.49647 -10595236.34345  22670100.2344   22670093.9304
 -28037974.00048 -21826725.82247  20254454.1334   20254446.8014
  -5959680.53547  -4635614.47044  23997270.2734   23997265.5234
 -14911281.37948 -11607692.29646  22081907.5554   22081903.3914
  -5731885.81646  -4446791.66143  24533961.5314   24533958.0164
 -17318334.86348 -13472558.91846  21968714.2034   21968710.3094
 -25245337.48448 -19650029.47547  20492496.0634   20492490.8754
    374817.41846    299553.42843  25174721.6334   25174718.2854
 09  4  4  1  2 30.0000000  0 11G20G16G31G 2G23G 7G25G32G 4G13G29
 -16852096.87947 -13120651.30245  22501769.1804   22501763.5744
  -2657376.14147  -2053809.51544  23416704.0554   23416698.3484
  -3000795.78546  -2328036.55543  25020607.2974   25020601.9774
 -13670333.06647 -10641439.12045  22658817.0474   22658810.8524
 -28026236.52748 -21817579.73547  20256687.6724   20256680.4574
  -6082773.38747  -4731530.89244  23973846.3134   23973842.2624
 -15004430.22348 -11680275.78346  22064181.8914   22064177.7234
  -5637714.89846  -4373411.79243  24551881.0474   24551878.4224
 -17288652.74248 -13449430.01046  21974362.6254   21974358.6454
 -25299733.05548 -19692415.62546  20482144.8054   20482139.6684
    312620.60946    251088.43443  25162887.2194   25162882.5554
 09  4  4  1  3  0.0000000  0 11G20G16G31G 2G23G 7G25G32G 4G13G29
 -16762294.15647 -13050675.17345  22518857.9924   22518852.6884
  -2728195.54747  -2108993.46344  23403226.7734   23403221.9614
  -2904084.50446  -2252677.12743  25039011.1094   25039005.4694
 -13729061.97347 -10687201.89545  22647641.3204   22647635.0664
 -28014019.15648 -21808059.70747  20259012.4384   20259005.0864
  -6205724.29347  -4827336.72444  23950449.1804   23950445.5164
 -15097209.52348 -11752571.32546  22046526.6884   22046522.0864
  -5543443.66046  -4299953.82943  24569821.2894   24569817.5474
 -17258400.64848 -13425856.98246  21980119.2504   21980115.3754
 -25353665.09448 -19734440.58046  20471881.7344   20471876.7664
    250892.06646    202988.25843  25151139.4534   25151136.3484
 09  4  4  1  3 30.0000000  0 11G20G16G31G 2G23G 7G25G32G 4G13G29
 -16672216.78547 -12980485.04245  22535999.0704   22535994.0204
  -2798536.64847  -2163804.70044  23389841.8054   23389836.5354
  -2807223.10246  -2177200.72944  25057441.7194   25057437.2704
 -13787222.92247 -10732522.09145  22636573.5314   22636566.8554
 -28001321.09848 -21798165.10947  20261428.6644   20261421.9264
  -6328529.83647  -4923029.24744  23927080.6094   23927076.0354
 -15189616.04748 -11824576.39246  22028942.1884   22028937.7704
  -5449072.09046  -4226417.60543  24587777.8914   24587776.0594
 -17227578.94547 -13401840.08646  21985984.2814   21985980.7234
 -25407131.27048 -19776102.52047  20461707.5164   20461702.2504
    189634.75846    155255.36443  25139481.6334   25139479.2814
 09  4  4  1  4  0.0000000  0 11G20G16G31G 2G23G 7G25G32G 4G13G29
 -16581865.87947 -12910081.77945  22553192.1254   22553187.0354
  -2868396.42647  -2218240.87644  23376547.9844   23376542.8164
  -2710213.52346  -2101608.95043  25075903.0004   25075897.8954
 -13844813.75047 -10777398.05745  22625614.3134   22625608.0514
 -27988142.59848 -21787896.14547  20263936.3364   20263929.2544
  -6451187.09047  -5018606.25844  23903739.2894   23903735.3284
 -15281647.32848 -11896289.06546  22011429.2814   22011424.8594
  -5354601.09446  -4152803.82643  24605754.2974   24605753.9384
 -17196188.42647 -13377379.95746  21991957.7584   21991953.9064
 -25460130.26648 -19817400.42147  20451621.9694   20451617.0314
    128851.99246    107892.17043  25127916.4224   25127912.7154
 09  4  4  1  4 30.0000000  0 11G20G16G31G 2G23G 7G25G32G 4G13G29
 -16491243.68447 -12839467.10145  22570436.7504   22570432.0944
  -2937772.49647  -2272300.13644  23363346.1414   23363340.9774
  -2613057.75846  -2025903.15943  25094391.5164   25094385.4774
 -13901832.60247 -10821828.31345  22614763.9384   22614758.0704
 -27974484.08648 -21777253.14547  20266535.7194   20266528.4774
  -6573693.87547  -5114065.99444  23880426.8444   23880422.9304
 -15373301.58248 -11967707.95546  21993988.0634   21993983.3874
  -5260031.69546  -4079113.53743  24623752.3524   24623748.7274
 -17164230.68048 -13352477.83946  21998039.1724   21998035.1724
 -25512661.30948 -19858333.69347  20441625.7114   20441620.4734
     68545.13346     60899.82143  25116440.7974   25116437.2274
 09  4  4  1  5  0.0000000  0 11G20G16G31G 2G23G 7G25G32G 4G13G29
 -16400348.41047 -12768639.65545  22587733.4454   22587729.3014
  -3006658.44147  -2325977.49444  23350237.4924   23350232.2234
  -2515754.61746  -1950082.57943  25112907.4454   25112901.6414
 -13958273.89847 -10865808.53645  22604023.8134   22604017.3674
 -27960342.29748 -21766233.56747  20269226.6884   20269219.4534
  -6696043.91447  -5209403.64144  23857144.6414   23857140.7814
 -15464573.02348 -12038828.55146  21976619.4534   21976615.3634
  -5165361.96946  -4005344.89243  24641765.6174   24641764.2464
 -17131703.15647 -13327131.72646  22004229.1484   22004225.1954
 -25564719.71948 -19898898.67347  20431719.4844   20431714.1214
      8720.02346     14282.89243  25105057.1884   25105051.9344
 09  4  4  1  5 30.0000000  0 11G20G16G31G 2G23G 7G25G32G 4G13G29
 -16309185.00047 -12697603.26145  22605081.8444   22605077.2704
  -3075055.86747  -2379274.14544  23337222.5704   23337216.7934
  -2418309.92246  -1874151.67543  25131450.2734   25131445.1374
 -14014139.46147 -10909340.13645  22593392.8674   22593386.6134
 -27945722.05548 -21754841.17247  20272008.6254   20272001.6254
  -6818238.19547  -5304619.88044  23833891.7274   23833887.3554
 -15555463.50448 -12109652.28346  21959323.8284   21959319.2814
  -5070596.37946  -3931501.67943  24659803.0634   24659798.1214
 -17098611.37547 -13301345.94346  22010526.2664   22010522.3204
 -25616308.57048 -19939097.76446  20421902.4774   20421897.3404
    -50624.83246    -31959.86543  25093763.0554   25093759.4964
 09  4  4  1  6  0.0000000  0 11G20G16G31G 2G23G 7G25G32G 4G13G29
 -16217754.14847 -12626358.47845  22622480.4384   22622475.7774
  -3142960.86347  -2432187.09744  23324299.8364   23324294.8444
  -2320724.50846  -1798111.11243  25150020.0314   25150015.4844
 -14069426.03147 -10952420.56545  22582872.0784   22582865.6094
 -27930622.06648 -21743074.94547  20274882.1884   20274875.1054
  -6940273.76247  -5399712.46944  23810668.9614   23810664.9384
 -15645969.57448 -12180176.48846  21942101.0314   21942096.7274
  -4975735.04746  -3857583.80743  24677851.6804   24677849.4454
 -17064955.18447 -13275120.35646  22016930.8364   22016926.9304
 -25667425.33648 -19978928.99846  20412175.1024   20412170.3244
   -109486.19946    -77825.78943  25082562.5394   25082558.6374
 09  4  4  1  6 30.0000000  0 11G20G16G31G 2G23G 7G25G32G 4G13G29
 -16126058.83247 -12554907.60245  22639929.0944   22639924.8204
  -3210371.84847  -2484715.10044  23311472.2814   23311466.7704
  -2223001.70346  -1721963.45443  25168616.4454   25168610.6844
 -14124133.08247 -10995049.43045  22572461.8914   22572455.4184
 -27915044.27048 -21730936.40747  20277846.5314   20277839.5044
  -7062148.96547  -5494680.12744  23787476.9614   23787472.9494
 -15736090.45348 -12250400.53446  21924951.3834   21924946.9924
  -4880780.26646  -3783593.14343  24695921.8134   24695918.8874
 -17030737.32048 -13248457.09646  22023442.2974   22023438.4534
 -25718070.03548 -20018392.38447  20402537.7814   20402532.7734
   -167863.46146   -123314.56643  25071453.2734   25071449.6214
 09  4  4  1  7  0.0000000  0 11G20G16G31G 2G23G 7G25G32G 4G13G29
 -16034102.21547 -12483253.13845  22657428.2034   22657423.4844
  -3277287.86347  -2536857.44444  23298738.5554   23298733.0004
  -2125145.27746  -1645711.82543  25187238.5784   25187233.9104
 -14178260.24647 -11037226.44345  22562161.6484   22562155.5084
 -27898990.97748 -21718427.34947  20280901.6024   20280894.5164
  -7183862.96147  -5589522.15744  23764315.5864   23764310.9694
 -15825825.57048 -12320324.00346  21907875.3594   21907871.1134
  -4785734.93746  -3709531.91643  24714007.2424   24714005.5864
 -16995960.69147 -13221358.44546  22030060.2894   22030056.1804
 -25768243.49648 -20057488.57346  20392989.9144   20392985.1414
   -225755.81246   -168425.49043  25060436.2974   25060433.0594
 09  4  4  1  7 30.0000000  0 11G20G16G31G 2G23G 7G25G32G 4G13G29
 -15941885.50447 -12411395.96245  22674976.3444   22674971.3524
  -3343705.72347  -2588611.58744  23286099.7194   23286094.5234
  -2027156.86347  -1569357.20444  25205885.8524   25205880.0004
 -14231804.90247 -11078949.55245  22551972.6884   22551966.0704
 -27882461.95348 -21705547.59047  20284047.1024   20284039.9694
  -7305412.43047  -5684235.97744  23741185.7894   23741180.8444
 -15915172.33648 -12389944.85946  21890873.0474   21890868.8594
  -4690599.23046  -3635400.25543  24732112.9064   24732108.6414
 -16960626.02348 -13193824.94946  22036784.2894   22036780.1994
 -25817944.11748 -20096216.31547  20383532.2034   20383527.2544
   -283160.60946   -213156.50443  25049512.0234   25049508.7624
 09  4  4  1  8  0.0000000  0 11G20G16G31G 2G23G 7G25G32G 4G13G29
 -15849409.37947 -12339336.69845  22692573.9774   22692569.3244
  -3409622.44547  -2639975.22244  23273555.3834   23273550.9384
  -1929037.63746  -1492900.67743  25224555.7664   25224551.5434
 -14284764.39547 -11120216.67645  22541894.6254   22541888.2464
 -27865457.08648 -21692297.04847  20287282.8134   20287275.4734
  -7426794.10547  -5778819.04344  23718086.9384   23718083.0984
 -16004128.15648 -12459261.08446  21873945.6644   21873941.1604
  -4595374.18046  -3561198.92443  24750233.6484   24750229.4964
 -16924734.25447 -13165857.35446  22043614.0394   22043610.1414
 -25867170.43048 -20134574.47647  20374165.1254   20374159.9884
   -340075.31246   -257505.55243  25038682.7034   25038678.2304
 09  4  4  1  8 30.0000000  0 11G20G16G31G 2G23G 7G25G32G 4G13G29
 -15756675.10947 -12267076.25845  22710220.7344   22710216.5474
  -3475034.84447  -2690945.93544  23261108.5474   23261103.0274
  -1830789.31646  -1416343.61343  25243252.1094   25243247.8674
 -14337136.41047 -11161026.05245  22531928.2974   22531922.1414
 -27847976.25448 -21678675.61847  20290609.4844   20290601.6374
  -7548005.31247  -5873269.28644  23695021.5004   23695017.3594
 -16092690.39548 -12528270.62046  21857092.9924   21857088.3794
  -4500059.96946  -3486928.16343  24768368.4304   24768367.2344
 -16888286.16448 -13137456.27746  22050549.5234   22050545.9844
 -25915920.80148 -20172561.76547  20364888.2344   20364883.0204
   -396497.34846   -301470.72443  25027945.7274   25027941.4534
 09  4  4  1  9  0.0000000  0 11G20G16G31G 2G23G 7G25G32G 4G13G29
 -15663685.23447 -12194616.62745  22727916.1094   22727912.0204
  -3539941.14147  -2741522.21844  23248756.7584   23248751.9654
  -1732414.45746  -1339687.93643  25261972.8674   25261968.1914
 -14388919.99247 -11201376.86745  22522074.4064   22522068.1094
 -27830020.44548 -21664684.08147  20294026.3594   20294018.8094
  -7669044.09047  -5967585.15244  23671988.5784   23671984.0944
 -16180857.75848 -12596972.45346  21840315.0314   21840310.6804
  -4404658.62546  -3412589.48843  24786522.7814   24786521.7154
 -16851284.12947 -13108623.53146  22057591.1484   22057587.2814
 -25964194.73448 -20210177.79447  20355701.9694   20355696.7154
   -452425.47746   -345051.16343  25017302.9614   25017298.8754
 09  4  4  1  9 30.0000000  0 11G20G16G31G 2G23G 7G25G32G 4G13G29
 -15570441.26247 -12121959.03645  22745660.1414   22745655.4494
  -3604338.36747  -2791701.84844  23236502.4844   23236497.2704
  -1633914.91646  -1262934.97543  25280715.9694   25280711.4574
 -14440112.91447 -11241267.45845  22512332.3594   22512326.4924
 -27811589.93448 -21650322.64947  20297533.3594   20297525.7664
  -7789907.11347  -6061764.09644  23648988.6644   23648984.7584
 -16268627.63348 -12665364.54746  21823612.8284   21823608.6844
  -4309170.74247  -3338183.34843  24804695.9844   24804692.4414
 -16813729.00048 -13079359.81145  22064737.8204   22064733.8164
 -26011991.29748 -20247421.86347  20346606.4224   20346601.1604
   -507857.00446   -388244.48643  25006754.8204   25006750.5704
 09  4  4  1 10  0.0000000  0 11G20G16G31G 2G23G 7G25G32G 4G13G29
 -15476945.60247 -12049105.31345  22763452.2734   22763447.2034
  -3668225.33647  -2841483.85044  23224345.5554   23224340.5044
  -1535293.98446  -1186087.57243  25299482.3284   25299479.2504
 -14490714.17647 -11280697.00345  22502703.6804   22502697.2854
 -27792686.94148 -21635593.04047  20301130.4614   20301123.1914
  -7910593.58647  -6155805.45144  23626022.6334   23626019.0634
 -16355999.35948 -12733446.40446  21806986.6094   21806982.4774
  -4213598.69546  -3263711.70143  24822881.2344   24822880.0864
 -16775623.37947 -13049667.12846  22071988.8524   22071984.9654
 -26059310.38748 -20284293.87647  20337602.0944   20337596.8714
   -562791.32447   -431050.42643  24996301.0394   24996296.3094
 09  4  4  1 10 30.0000000  0 11G20G16G31G 2G23G 7G25G32G 4G13G29
 -15383199.01247 -11976056.06145  22781291.1414   22781286.6134
  -3731598.52047  -2890865.50844  23212285.4694   23212280.6254
  -1436552.47746  -1109146.12443  25318272.4454   25318268.7584
 -14540721.10547 -11319663.43645  22493187.4614   22493181.2114
 -27773310.43048 -21620494.46747  20304817.9384   20304810.4614
  -8031099.53147  -6249706.12845  23603091.5234   23603087.2624
 -16442969.79348 -12801215.55946  21790436.7814   21790432.3984
  -4117942.53946  -3189174.48243  24841086.3674   24841082.0904
 -16736967.72348 -13019545.86445  22079344.7734   22079340.9264
 -26106150.05548 -20320792.30747  20328688.6094   20328683.5354
   -617225.32846   -473466.51143  24985942.5084   24985938.1764
 09  4  4  1 11  0.0000000  0 11G20G16G31G 2G23G 7G25G32G 4G13G29
 -15289202.90647 -11902812.38945  22799178.0084   22799173.6914
  -3794454.90647  -2939844.47644  23200324.6484   23200319.7384
  -1337691.92246  -1032112.04443  25337085.3754   25337081.3714
 -14590131.41847 -11358164.97945  22483785.0944   22483778.8554
 -27753460.93448 -21605027.31947  20308594.9694   20308587.8324
  -8151422.06247  -6343463.90344  23580194.7344   23580190.5744
 -16529536.68748 -12868670.26546  21773963.9304   21773959.3714
  -4022203.18447  -3114572.43843  24859304.4774   24859300.8324
 -16697763.41848 -12988997.06946  22086805.1644   22086801.4144
 -26152509.07048 -20356916.20547  20319866.7894   20319861.3244
   -671156.78546   -515491.03743  24975679.3444   24975675.6134
 09  4  4  1 11 30.0000000  0 11G20G16G31G 2G23G 7G25G32G 4G13G29
 -15194961.33247 -11829377.41745  22817112.2734   22817106.9654
  -3856794.86747  -2988421.05844  23188461.4614   23188456.1884
  -1238717.31646   -954989.08543  25355922.1884   25355915.3404
 -14638946.29347 -11396202.54545  22474496.2034   22474490.0004
 -27733141.33648 -21589193.86947  20312461.3914   20312454.4064
  -8271561.77347  -6437079.20544  23557332.7734   23557328.9304
 -16615700.48048 -12935810.86846  21757567.2814   21757562.7664
  -3926384.07046  -3039908.29043  24877537.7034   24877534.0004
 -16658014.54748 -12958023.95245  22094369.2034   22094365.2034
 -26198389.01248 -20392666.79547  20311136.1484   20311130.8204
   -724586.29746   -557124.36343  24965510.9454   24965508.1844
 09  4  4  1 12  0.0000000  0 11G20G16G31G 2G23G 7G25G32G 4G13G29
 -15100475.18747 -11755751.89545  22835091.8284   22835087.3794
  -3918615.11747  -3036592.66144  23176698.2034   23176692.4844
  -1139629.77046   -877777.88943  25374775.5634   25374770.9494
 -14687162.92647 -11433773.95345  22465321.0634   22465314.6134
 -27712351.48448 -21572993.99347  20316417.8524   20316410.6914
  -8391514.92247  -6530549.14844  23534506.3284   23534502.3364
 -16701458.53148 -13002635.30046  21741247.8444   21741243.2704
  -3830485.87946  -2965182.51243  24895785.5084   24895783.3284
 -16617721.81248 -12926627.03245  22102036.6094   22102032.6454
 -26243788.55948 -20428043.06247  20302496.8754   20302491.7664
   -777510.94547   -598364.34743  24955441.3984   24955437.1644
 09  4  4  1 12 30.0000000  0 11G20G16G31G 2G23G 7G25G32G 4G13G29
 -15005746.03547 -11681937.02745  22853117.9924   22853113.4774
  -3979913.07847  -3084357.29244  23165032.3984   23165028.0204
  -1040430.82045   -800480.22743  25393651.8444   25393648.4184
 -14734779.48847 -11470877.75345  22456259.3204   22456253.1804
 -27691091.98848 -21556428.14847  20320463.3524   20320456.5434
  -8511278.89847  -6623871.66245  23511715.9064   23511712.0434
 -16786808.68448 -13069141.89846  21725006.2664   21725002.2544
  -3734509.31646  -2890395.54943  24914050.2034   24914046.7624
 -16576886.48048 -12894807.30245  22109807.5004   22109803.5164
 -26288706.34048 -20463043.92647  20293949.5704   20293943.9844
   -829928.84046   -639209.47443  24945465.4454   24945462.2154
 09  4  4  1 13  0.0000000  0 11G20G16G31G 2G23G 7G25G32G 4G13G29
 -14910775.05147 -11607933.68844  22871190.5164   22871186.3134
  -4040685.96947  -3131712.77244  23153468.5474   23153462.9924
   -941122.40246   -723097.01043  25412549.9534   25412546.3954
 -14781793.68747 -11507512.20245  22447312.9694   22447306.6294
 -27669362.53148 -21539496.10847  20324598.1024   20324590.6724
  -8630850.46547  -6717044.26945  23488962.2974   23488958.4184
 -16871748.43448 -13135328.68246  21708843.0234   21708838.5434
  -3638455.06246  -2815548.16443  24932329.1884   24932325.1374
 -16535509.83648 -12862565.78645  22117681.2034   22117677.1254
 -26333140.49648 -20497667.93047  20285493.8204   20285488.5634
   -881837.59047   -679657.77943  24935587.7974   24935584.6134
 09  4  4  1 13 30.0000000  0 11G20G16G31G 2G23G 7G25G32G 4G13G29
 -14815562.96547 -11533742.49244  22889308.7734   22889304.1844
  -4100930.27347  -3178656.35544  23142004.3984   23141998.6954
   -841705.39846   -645629.22043  25431470.2664   25431465.0274
 -14828202.75047 -11543675.08745  22438482.0004   22438475.3914
 -27647162.89148 -21522197.68847  20328822.7974   20328815.4064
  -8750226.24247  -6810064.30745  23466245.9304   23466241.8054
 -16956274.82048 -13201193.37746  21692758.0084   21692753.7424
  -3542323.29746  -2740640.29243  24950622.0944   24950619.8444
 -16493592.33248 -12829902.82145  22125657.7194   22125653.7034
 -26377089.58248 -20531913.96647  20277130.6884   20277125.2234
   -933234.28547   -719707.13944  24925807.2194   24925803.9304
 09  4  4  1 14  0.0000000  0 11G20G16G31G 2G23G 7G25G32G 4G13G29
 -14720113.07847 -11459366.02444  22907472.5084   22907467.8244
  -4160645.45747  -3225187.64744  23130640.4534   23130635.0234
   -742183.08646   -568079.35843  25450407.2034   25450404.4024
 -14874006.93047 -11579366.65245  22429765.7424   22429759.3594
 -27624495.52348 -21504534.81047  20333136.3594   20333128.8794
  -8869405.37147  -6902931.13245  23443566.7734   23443562.6134
 -17040387.54348 -13266735.71646  21676751.6954   21676747.3674
  -3446116.76646  -2665674.24843  24968928.9304   24968926.4344
 -16451137.40247 -12796821.07845  22133736.7034   22133732.8054
 -26420554.14548 -20565782.44547  20268859.6174   20268854.3324
   -984118.82847   -759357.42643  24916124.9534   24916120.8094
 09  4  4  1 14 30.0000000  0 11G20G16G31G 2G23G 7G25G32G 4G13G29
 -14624426.56247 -11384805.12444  22925680.7504   22925676.0664
  -4219828.58647  -3271304.35444  23119378.6254   23119372.9024
   -642556.87146   -490448.63543  25469366.5394   25469362.0354
 -14919203.92648 -11614585.08845  22421164.9384   22421158.6884
 -27601360.36748 -21486507.42147  20337538.7734   20337531.5554
  -8988384.67247  -6995642.21945  23420925.5164   23420921.6644
 -17124084.14848 -13331953.81646  21660825.0474   21660820.3014
  -3349836.07846  -2590650.33543  24987251.0704   24987248.5554
 -16408145.99248 -12763321.28145  22141917.8984   22141913.8484
 -26463532.96948 -20599272.43647  20260680.5634   20260675.7234
  -1034488.70747   -798606.67843  24906540.0784   24906535.7894
 09  4  4  1 15  0.0000000  0 10G20G16G 2G23G 7G25G32G 4G13G29
 -14528506.40647 -11310062.18944  22943933.7114   22943929.5704
  -4278478.50447  -3317005.56644  23108218.2194   23108212.0084
 -14963793.41847 -11649330.14145  22412679.7584   22412673.5514
 -27577759.10948 -21468116.82247  20342029.9534   20342022.7664
  -9107162.93447  -7088196.66545  23398323.2424   23398318.3284
 -17207363.91048 -13396847.10946  21644977.1884   21644972.7154
  -3253483.56646  -2515570.45643  25005586.1484   25005583.2774
 -16364621.07848 -12729405.77945  22150200.5314   22150196.6374
 -26506026.59048 -20632384.34747  20252594.7584   20252589.2734
  -1084343.49647   -837454.49543  24897053.3054   24897048.3324
 09  4  4  1 15 30.0000000  0 10G20G16G 2G23G 7G25G32G 4G13G29
 -14432352.21147 -11235136.88344  22962231.8204   22962226.9614
  -4336590.99647  -3362288.01244  23097159.1254   23097153.8404
 -15007771.73447 -11683598.95145  22404310.8134   22404304.6724
 -27553690.61748 -21449362.16547  20346609.9844   20346602.7384
  -9225735.68047  -7180590.96445  23375759.4694   23375755.1994
 -17290223.04748 -13461412.63846  21629209.5634   21629205.1174
  -3157058.52746  -2440434.17943  25023935.6254   25023932.7034
 -16320562.25448 -12695074.25345  22158584.1954   22158580.5164
 -26548031.92648 -20665115.76747  20244601.1414   20244596.2304
  -1133679.15646   -875897.89543  24887662.6334   24887660.1684
 09  4  4  1 16  0.0000000  0 10G20G16G 2G23G 7G25G32G 4G13G29
 -14335959.68447 -11160025.85844  22980574.2894   22980569.8014
  -4394157.91447  -3407145.34644  23086204.7734   23086199.1374
 -15051131.44147 -11717385.73545  22396060.2274   22396053.5824
 -27529149.55148 -21430239.25347  20351280.1484   20351272.8134
  -9344094.41047  -7272818.49445  23353236.7504   23353232.4224
 -17372653.72348 -13525644.30946  21613523.8524   21613519.1844
  -3060556.01246  -2365237.42243  25042299.0944   25042296.0314
 -16275965.42248 -12660323.48045  22167070.7034   22167066.7664
 -26589542.39848 -20697461.58447  20236701.9304   20236696.7544
  -1182488.10246   -913930.81043  24878375.9224   24878371.6094
 09  4  4  1 16 30.0000000  0 10G20G16G 2G23G 7G25G32G 4G13G29
 -14239320.73447 -11084722.82744  22998963.8984   22998959.6054
  -4451167.10947  -3451568.06144  23075356.2344   23075350.5664
 -15093861.34047 -11750681.75945  22387928.5864   22387921.9184
 -27504126.95348 -21410741.12047  20356041.6954   20356034.6524
  -9462227.05147  -7364869.85245  23330757.0704   23330752.2234
 -17454644.38348 -13589533.11346  21597921.3674   21597916.5274
  -2963967.64146  -2289973.74343  25060679.5634   25060676.7544
 -16230822.70348 -12625147.35545  22175661.1724   22175657.4454
 -26630547.41848 -20729413.53447  20228899.3834   20228893.8874
  -1230758.89846   -951544.38843  24869190.6334   24869186.7624
 09  4  4  1 17  0.0000000  0 10G20G16G 2G23G 7G25G32G 4G13G29
 -14142441.02047 -11009232.18344  23017399.8364   23017395.5634
  -4507620.37147  -3495557.59944  23064613.2344   23064608.1374
 -15135963.50048 -11783488.61245  22379916.9304   22379911.0274
 -27478626.91848 -21390870.96947  20360894.2424   20360887.2704
  -9580134.54347  -7456745.77145  23308319.3914   23308315.1484
 -17536196.79348 -13653080.41946  21582402.3524   21582397.8444
  -2867298.12546  -2214646.87643  25079075.6564   25079072.8054
 -16185139.33648 -12589549.93845  22184354.5474   22184350.4924
 -26671049.69548 -20760973.74047  20221191.9304   20221186.3794
  -1278493.55146   -988740.17643  24860106.6884   24860102.7504
 09  4  4  1 17 30.0000000  0 10G20G16G 2G23G 7G25G32G 4G13G29
 -14045323.16047 -10933555.96944  23035880.9064   23035876.6054
  -4563516.31647  -3539112.85744  23053976.6254   23053971.5434
 -15177437.73848 -11815806.19445  22372024.5084   22372018.3324
 -27452651.41448 -21370630.31547  20365837.1094   20365829.7544
  -9697815.48047  -7548445.17245  23285925.8284   23285921.0274
 -17617310.10948 -13716285.57546  21566966.9384   21566962.2074
  -2770549.44146  -2139258.35843  25097486.0784   25097483.5554
 -16138918.23048 -12553533.51445  22193149.9144   22193146.0314
 -26711049.59848 -20792142.48547  20213579.9844   20213574.9494
  -1325691.14847  -1025517.55543  24851125.7194   24851121.8834
 09  4  4  1 18  0.0000000  0 10G20G16G 2G23G 7G25G32G 4G13G29
 -13947973.43047 -10857699.08544  23054406.0944   23054401.3134
  -4618857.55147  -3582235.90145  23043445.0944   23043440.3594
 -15218287.02348 -11847636.78846  22364251.1484   22364244.6604
 -27426205.66448 -21350023.24247  20370869.9694   20370862.3954
  -9815272.19147  -7639969.84145  23263574.4224   23263569.7234
 -17697987.22748 -13779150.83946  21551614.7584   21551610.0164
  -2673727.87546  -2063813.00243  25115909.8594   25115908.3794
 -16092165.88348 -12517103.13245  22202046.9304   22202042.6994
 -26750550.96148 -20822922.77047  20206063.2114   20206057.8954
  -1372355.00847  -1061878.98943  24842245.4304   24842241.4654
 09  4  4  1 18 30.0000000  0 10G20G16G 2G23G 7G25G32G 4G13G29
 -13850392.86747 -10781662.32844  23072975.2734   23072970.2034
  -4673640.90247  -3624924.21345  23033021.0084   23033015.5314
 -15258508.84048 -11878978.45845  22356597.4534   22356590.7974
 -27399289.48448 -21329049.59547  20375991.5784   20375984.2384
  -9932501.23447  -7731317.10945  23241266.3594   23241261.8554
 -17778225.48448 -13841674.13046  21536345.6254   21536341.2504
  -2576833.34446  -1988310.80743  25134348.8594   25134346.2814
 -16044883.04748 -12480259.37745  22211044.5784   22211040.6134
 -26789552.25448 -20853313.37447  20198641.3204   20198635.8444
  -1418482.46947  -1097822.43343  24833468.4844   24833463.8984
 09  4  4  1 19  0.0000000  0 10G20G16G 2G23G 7G25G32G 4G13G29
 -13752583.64547 -10705447.36244  23091587.3834   23091583.1414
  -4727865.13347  -3667176.83745  23022701.9534   23022696.7304
 -15298102.63348 -11909830.73946  22349062.8524   22349056.2624
 -27371904.16048 -21307710.38346  20381202.7504   20381195.5594
 -10049500.67647  -7822485.46945  23219001.8204   23218997.0434
 -17858023.68748 -13903854.52846  21521160.5704   21521156.2234
  -2479867.74246  -1912753.23543  25152800.7034   25152798.0474
 -15997072.25048 -12443004.21745  22220142.5394   22220139.0124
 -26828053.32448 -20883314.21047  20191314.8594   20191309.6454
  -1464072.44147  -1133347.03943  24824792.5004   24824788.3094
 09  4  4  1 19 30.0000000  0 10G20G16G 2G23G 7G25G32G 4G13G29
 -13654546.77747 -10629055.05244  23110243.5864   23110238.8524
  -4781527.00847  -3708991.28245  23012490.5004   23012485.3444
 -15337066.40248 -11940192.12045  22341648.3284   22341641.8014
 -27344050.00848 -21286005.84846  20386503.3914   20386495.9844
 -10166267.28947  -7913472.40245  23196781.7034   23196777.2274
 -17937379.33648 -13965690.08646  21506059.9924   21506055.2814
  -2382831.64845  -1837140.71443  25171265.9304   25171263.4494
 -15948734.76248 -12405338.66945  22229340.9534   22229336.8594
 -26866052.99648 -20912924.33047  20184084.0314   20184078.6994
  -1509122.71147  -1168451.12443  24816218.9534   24816215.8364
 09  4  4  1 20  0.0000000  0 10G20G16G 2G23G 7G25G32G 4G13G29
 -13556290.73047 -10552491.93744  23128940.9774   23128936.7154
  -4834631.32847  -3750371.24845  23002385.2894   23002379.7974
 -15375405.32848 -11970066.60145  22334352.5634   22334346.0274
 -27315734.25048 -21263941.62247  20391891.5164   20391884.2464
 -10282805.26247  -8004281.18345  23174605.3524   23174601.0274
 -18016297.28948 -14027184.57446  21491042.1174   21491037.3874
  -2285732.75046  -1761479.23543  25189743.4454   25189740.6414
 -15899878.76648 -12367269.07445  22238637.8754   22238634.1764
 -26903556.66048 -20942147.95247  20176947.2894   20176941.7384
  -1553638.06246  -1203138.38744  24807747.9224   24807744.5004
 09  4  4  1 20 30.0000000  0 10G20G16G 2G23G 7G25G32G 4G13G29
 -13457814.96547 -10475757.64144  23147680.0864   23147675.7934
  -4887173.83247  -3791313.47045  22992386.8914   22992381.4454
 -15413115.84448 -11999451.41045  22327176.5004   22327169.6804
 -27286955.30948 -21241516.47447  20397368.1334   20397361.1214
 -10399109.82847  -8094908.09945  23152473.3054   23152468.4534
 -18094773.48448 -14088334.84246  21476108.6644   21476103.9694
  -2188569.90646  -1685768.01043  25208232.8524   25208230.7074
 -15850504.12948 -12328795.33745  22248033.1334   22248029.6954
 -26940561.62548 -20970982.98247  20169905.2194   20169899.8404
  -1597614.77047  -1237405.92643  24799380.4614   24799376.1884
 09  4  4  1 21  0.0000000  0 10G20G16G 2G23G 7G25G32G 4G13G29
 -13359121.10247 -10398853.38544  23166460.6644   23166456.6564
  -4939152.37947  -3831816.20445  22982495.5704   22982490.0274
 -15450196.43448 -12028345.37945  22320120.2584   22320113.5084
 -27257713.78548 -21218730.87747  20402932.6334   20402925.1454
 -10515178.64847  -8185351.31845  23130385.8134   23130381.4304
 -18172806.06248 -14149139.43346  21461259.4454   21461254.8714
  -2091344.26646  -1610007.72543  25226734.2814   25226732.0314
 -15800612.62148 -12289918.85345  22257527.6644   22257524.0864
 -26977066.57448 -20999428.39147  20162958.7504   20162953.1724
  -1641051.21947  -1271252.50144  24791114.5864   24791110.5784
 09  4  4  1 21 30.0000000  0 10G20G16G 2G23G 7G25G32G 4G13G29
 -13260212.68047 -10321781.93444  23185283.0164   23185277.7814
  -4990566.78547  -3871879.37045  22972712.1484   22972706.3524
 -15486647.96548 -12056749.15745  22313183.8984   22313177.3754
 -27228012.52048 -21195587.03147  20408584.4844   20408577.4734
 -10631011.05547  -8275610.30445  23108343.9224   23108339.0314
 -18250395.28548 -14209598.55546  21446494.6884   21446490.0704
  -1994058.93746  -1534201.09643  25245247.2274   25245244.4224
 -15750208.08648 -12250642.60345  22267119.3204   22267115.5634
 -27013073.44548 -21027485.69547  20156107.1564   20156101.5634
  -1683947.78947  -1304678.40244  24782951.8054   24782947.4774
 09  4  4  1 22  0.0000000  0 10G20G16G 2G23G 7G25G32G 4G13G29
 -13161089.25047 -10244542.92444  23204144.9454   23204140.9654
  -5041412.59447  -3911499.46145  22963036.1254   22963030.7274
 -15522466.71547 -12084659.87646  22306367.5784   22306361.3524
 -27197849.98448 -21172083.76246  20414324.2814   20414317.1374
 -10746602.14547  -8365681.27545  23086347.6334   23086342.9304
 -18327537.09448 -14269709.03546  21431815.2424   21431810.5634
  -1896712.75846  -1458346.84743  25263771.6564   25263769.2854
 -15699290.04748 -12210966.21545  22276808.5944   22276804.9304
 -27048579.08248 -21055152.41147  20149350.2734   20149344.8914
  -1726300.62547  -1337680.59044  24774892.4614   24774888.4264
 09  4  4  1 22 30.0000000  0  9G20G16G 2G23G 7G25G 4G13G29
 -13061751.94147 -10167137.25544  23223048.9144   23223043.6484
  -5091687.39147  -3950674.61244  22953468.8284   22953463.4304
 -15557650.52747 -12112075.84145  22299672.0864   22299666.1684
 -27167225.94948 -21148220.87346  20420151.8984   20420144.7114
 -10861948.49647  -8455561.52245  23064397.7584   23064393.4734
 -18404228.96948 -14329468.92646  21417220.9384   21417216.6094
 -15647859.60948 -12170890.57745  22286595.6954   22286592.0664
 -27083581.87548 -21082427.30347  20142689.5784   20142684.1294
  -1768107.45747  -1370257.29843  24766936.5784   24766932.6214
 09  4  4  1 23  0.0000000  0  9G20G16G 2G23G 7G25G 4G13G29
 -12962202.69147 -10089566.48144  23241992.1644   23241987.7234
  -5141389.37547  -3989403.41345  22944011.4694   22944005.5864
 -15592198.80547 -12138996.57546  22293098.2974   22293091.9454
 -27136141.53148 -21123999.25746  20426066.9454   20426060.0784
 -10977047.82447  -8545249.29245  23042495.2034   23042490.6764
 -18480469.64548 -14388877.24646  21402713.0864   21402708.4694
 -15595919.19548 -12130417.54245  22296479.8054   22296475.7934
 -27118081.62548 -21109310.21347  20136124.2344   20136118.7504
  -1809367.12546  -1402407.69843  24759084.4454   24759081.1684
 09  4  4  1 23 30.0000000  0  9G20G16G 2G23G 7G25G 4G13G29
 -12862436.64847 -10011826.77444  23260976.9694   23260972.6174
  -5190509.98447  -4027679.20545  22934663.2734   22934658.3554
 -15626103.82047 -12165416.07646  22286646.2504   22286639.7154
 -27104591.30948 -21099414.68447  20432070.8204   20432063.6804
 -11091891.92247  -8634738.17745  23020641.0394   23020636.8164
 -18556250.88748 -14447927.54046  21388292.0634   21388287.5864
 -15543464.30948 -12089543.61045  22306461.4774   22306457.4494
 -27152071.24648 -21135795.63347  20129656.2194   20129650.8524
  -1850071.85547  -1434125.64443  24751339.3834   24751335.1484
 09  4  4  1 24  0.0000000  0  9G20G16G 2G23G 7G25G 4G13G29
 -12762452.13747  -9933916.80544  23280003.8134   23279998.7274
  -5239044.14847  -4065498.00445  22925427.9844   22925422.3794
 -15659360.43047 -12191330.32145  22280317.7584   22280311.3054
 -27072572.25448 -21074464.76847  20438163.7504   20438156.9304
 -11206474.43447  -8724023.24045  22998837.0234   22998832.1994
 -18631567.35248 -14506615.67946  21373960.0474   21373955.5664
 -15490493.19548 -12048267.44145  22316541.7814   22316537.5044
 -27185546.15248 -21161879.96447  20123286.3134   20123280.8674
  -1890216.35247  -1465407.08044  24743699.2734   24743695.6374
 09  4  4  1 24 30.0000000  0  9G20G16G 2G23G 7G25G 4G13G29
 -12662251.75847  -9855838.62544  23299070.7734   23299066.4454
  -5286990.44947  -4102858.74245  22916304.2274   22916298.7504
 -15691968.92248 -12216739.52645  22274112.3284   22274105.9804
 -27040086.22348 -21049150.98747  20444345.6254   20444338.6294
 -11320793.74647  -8813103.22845  22977082.2894   22977077.6994
 -18706418.42648 -14564941.17546  21359716.6724   21359711.8484
 -15437008.94948 -12006591.41645  22326719.2424   22326715.2774
 -27218507.24648 -21187563.93147  20117014.0944   20117008.5704
  -1929800.23447  -1496251.64743  24736167.5864   24736163.6724
 09  4  4  1 25  0.0000000  0  9G20G16G 2G23G 7G25G 4G13G29
 -12561838.96147  -9777594.98244  23318178.9844   23318174.6844
  -5334348.88747  -4139761.40945  22907292.3204   22907287.0474
 -15723929.88348 -12241644.17446  22268030.5084   22268024.0514
 -27007135.79348 -21023475.33147  20450615.9064   20450608.7194
 -11434849.32847  -8901977.67745  22955378.9064   22955374.2584
 -18780804.27748 -14622904.16446  21345561.0394   21345556.6564
 -15383015.53548 -11964518.64145  22336993.9924   22336989.9534
 -27250955.23048 -21212848.06747  20110839.4694   20110833.9454
  -1968824.02747  -1526659.76844  24728740.6564   24728737.1254
 09  4  4  1 25 30.0000000  0  9G20G16G 2G23G 7G25G 4G13G29
 -12461218.59047  -9699189.49744  23337326.6884   23337322.1804
  -5381120.83647  -4176207.07345  22898390.9614   22898386.7114
 -15755245.29348 -12266045.79445  22262071.2734   22262064.8594
 -26973724.91448 -20997440.88547  20456973.6334   20456966.7114
 -11548641.79747  -8990647.13645  22933724.8204   22933720.2544
 -18854726.47748 -14680505.86946  21331494.3674   21331489.5744
 -15328518.03148 -11922053.07045  22347364.3754   22347360.5594
 -27282893.14148 -21237734.74947  20104761.8364   20104756.3094
  -2007289.70347  -1556633.00543  24721421.4844   24721417.0164
 09  4  4  1 26  0.0000000  0  9G20G16G 2G23G 7G25G 4G13G29
 -12360396.54747  -9620626.94644  23356512.4534   23356507.5434
  -5427308.53947  -4212197.48345  22889602.5784   22889597.1724
 -15785918.01248 -12289946.62245  22256234.6724   22256228.2854
 -26939858.62548 -20971051.56547  20463418.3914   20463411.2774
 -11662172.46947  -9079112.55545  22912120.4614   22912115.6524
 -18928187.24648 -14737748.01946  21317515.3594   21317510.6524
 -15273522.14847 -11879199.14545  22357829.8674   22357825.9184
 -27314323.69948 -21262226.08547  20098780.6174   20098775.5434
  -2045199.57446  -1586173.13643  24714207.5004   24714203.5084
 09  4  4  1 26 30.0000000  0  9G20G16G 2G23G 7G25G 4G13G29
 -12259375.11347  -9541908.97144  23375735.9614   23375731.6724
  -5472910.71147  -4247731.64445  22880924.6484   22880919.0664
 -15815947.12948 -12313345.94045  22250520.3754   22250513.4494
 -26905537.85948 -20944308.11446  20469949.4694   20469942.1524
 -11775439.13747  -9167372.28245  22890566.3834   22890562.1374
 -19001185.21548 -14794629.53646  21303624.3524   21303619.5124
 -15218030.48048 -11835958.90745  22368389.5634   22368385.7274
 -27345247.09048 -21286322.23147  20092896.3674   20092891.1054
  -2082552.21947  -1615279.11944  24707099.7814   24707096.1024
 09  4  4  1 27  0.0000000  0  9G20G16G 2G23G 7G25G 4G13G29
 -12158157.16847  -9463037.89344  23394996.5944   23394993.0554
  -5517926.55947  -4282808.92244  22872357.9384   22872353.1214
 -15845333.68748 -12336244.57245  22244928.3054   22244921.4104
 -26870765.01648 -20917212.39547  20476566.3524   20476559.3164
 -11888441.38347  -9255425.96545  22869063.0004   22869058.4184
 -19073720.58248 -14851150.59146  21289821.4534   21289816.5124
 -15162046.72348 -11792335.22045  22379043.0314   22379038.9384
 -27375664.22748 -21310023.89347  20087107.9844   20087102.4804
  -2119348.43747  -1643951.47944  24700096.9534   24700093.8834
 09  4  4  1 27 30.0000000  0  9G20G16G 2G23G 7G25G 4G13G29
 -12056743.25847  -9384014.12544  23414295.4924   23414291.5274
  -5562353.27747  -4317427.12245  22863905.2114   22863898.8484
 -15874074.92248 -12358640.33845  22239458.9694   22239452.2344
 -26835539.64548 -20889764.05746  20483269.4694   20483262.1684
 -12001175.16847  -9343270.43545  22847610.1804   22847605.7704
 -19145790.23848 -14907308.74546  21276106.7114   21276102.4184
 -15105571.50848 -11748328.57445  22389789.7344   22389786.2774
 -27405573.12148 -21333329.50947  20081416.6724   20081411.0084
  -2155585.38347  -1672188.04644  24693201.9384   24693198.1884
 09  4  4  1 28  0.0000000  0  9G20G16G 2G23G 7G25G 4G13G29
 -11955135.50447  -9304839.29844  23433631.1484   23433626.5434
  -5606189.38347  -4351585.11845  22855562.3444   22855557.2274
 -15902170.36348 -12380532.89646  22234112.6564   22234105.8674
 -26799863.06648 -20861964.12546  20490058.7194   20490051.1884
 -12113638.44947  -9430904.12945  22826209.3204   22826204.5634
 -19217392.97348 -14963103.07846  21262481.3674   21262476.7234
 -15048607.35248 -11703940.92545  22400629.8134   22400626.2074
 -27434973.15248 -21356238.63147  20075821.8444   20075816.4844
  -2191262.10947  -1699988.07344  24686412.5164   24686409.2344
 09  4  4  1 28 30.0000000  0  9G20G16G 2G23G 7G25G 4G13G29
 -11853334.78547  -9225514.11144  23453003.9614   23452999.1914
  -5649432.50447  -4385281.03045  22847333.8984   22847328.0664
 -15929618.43448 -12401921.00245  22228889.3834   22228882.6254
 -26763735.34448 -20833812.66346  20496933.6954   20496926.3524
 -12225828.05947  -9518324.57745  22804860.2584   22804855.6564
 -19288526.65648 -15018531.90646  21248944.8284   21248940.0824
 -14991155.70348 -11659173.43045  22411562.2664   22411558.7504
 -27463863.69948 -21378750.73047  20070324.1884   20070318.8094
  -2226376.77747  -1727350.12644  24679730.5864   24679726.5784
 09  4  4  1 29  0.0000000  0  9G20G16G 2G23G 7G25G 4G13G29
 -11751345.67247  -9146042.13144  23472411.1094   23472406.8524
  -5692083.48847  -4418515.57445  22839217.3754   22839212.0554
 -15956420.98048 -12422806.11546  22223789.0234   22223782.5274
 -26727159.88348 -20805312.30346  20503893.7344   20503886.4384
 -12337744.03547  -9605531.79145  22783563.6024   22783558.8204
 -19359192.22348 -15073595.96646  21235497.3204   21235493.3984
 -14933221.23448 -11614029.70845  22422586.7424   22422583.4654
 -27492247.08248 -21400867.65147  20064923.1804   20064917.9964
  -2260930.78547  -1754275.34543  24673154.9534   24673151.4534
 09  4  4  1 29 30.0000000  0  9G20G16G 2G23G 7G25G 4G13G29
 -11649170.00447  -9066424.78644  23491854.6884   23491850.2034
  -5734141.00447  -4451287.65745  22831214.1254   22831208.5354
 -15982576.64547 -12443187.14946  22218811.6884   22218805.3714
 -26690137.63748 -20776463.79946  20510938.8834   20510931.3714
 -12449384.03947  -9692523.97445  22762318.9384   22762314.1454
 -19429388.25448 -15128294.16146  21222139.8204   21222135.3244
 -14874806.03148 -11568511.38045  22433702.7194   22433699.2304
 -27520122.23447 -21422588.54447  20059618.6884   20059613.2774
  -2294923.18047  -1780762.87844  24666686.7274   24666682.5554
 09  4  4  1 30  0.0000000  0  9G20G16G 2G23G 7G25G 4G13G29
 -11546809.52747  -8986663.41344  23511333.1334   23511328.6724
  -5775603.43047  -4483596.02945  22823324.0554   22823318.4344
 -16008085.02347 -12463063.82145  22213957.5164   22213951.2894
 -26652669.59848 -20747267.93147  20518068.9224   20518061.6134
 -12560745.79747  -9779299.33645  22741127.6644   22741122.4104
 -19499113.40248 -15182625.42546  21208871.5704   21208866.8914
 -14815912.68448 -11522620.48345  22444910.2664   22444906.2734
 -27547488.99648 -21443913.28447  20054410.7194   20054405.3674
  -2328352.28947  -1806811.56643  24660325.2344   24660321.0204
 09  4  4  1 30 30.0000000  0  9G20G16G 2G23G 7G25G 4G13G29
 -11444267.69147  -8906760.72644  23530846.8204   23530841.9924
  -5816470.47347  -4515440.44045  22815547.6174   22815541.7974
 -16032947.08247 -12482436.84945  22209226.5394   22209219.9844
 -26614758.27348 -20717726.63946  20525283.0234   20525275.8984
 -12671828.49247  -9865857.23445  22719989.3134   22719984.0204
 -19568367.60548 -15236589.72246  21195692.8054   21195688.1524
 -14756544.81248 -11476359.81545  22456207.3754   22456203.7384
 -27574348.36348 -21464842.65647  20049299.7664   20049294.4454
  -2361218.85547  -1832421.83044  24654070.7664   24654066.9414
 09  4  4  1 31  0.0000000  0  9G20G16G 2G23G 7G25G 4G13G29
 -11341545.16847  -8826717.27344  23550393.3054   23550389.5124
  -5856739.57447  -4546818.95145  22807884.0634   22807879.0124
 -16057160.53948 -12501304.49246  22204618.8594   22204612.4184
 -26576403.46948 -20687839.78546  20532581.6484   20532574.6214
 -12782628.64847  -9952194.99645  22698904.4924   22698899.7464
 -19637148.34848 -15290185.09146  21182604.1644   21182599.7424
 -14696703.27048 -11429730.06745  22467594.5634   22467591.1804
 -27600698.89548 -21485375.53747  20044285.2974   20044280.0204
  -2393520.76647  -1857592.12643  24647923.7814   24647920.3054
 09  4  4  1 31 30.0000000  0  9G20G16G 2G23G 7G25G 4G13G29
 -11238645.36747  -8746535.67244  23569974.9844   23569970.4694
  -5896411.08647  -4577731.77645  22800335.3284   22800329.4454
 -16080726.49248 -12519667.57445  22200134.5004   22200128.1524
 -26537607.93748 -20657609.50346  20539964.2344   20539957.1414
 -12893145.73447 -10038312.17245  22677873.7664   22677869.3164
 -19705456.02048 -15343411.82846  21169605.6174   21169601.0904
 -14636392.24248 -11382734.47145  22479071.7114   22479068.0824
 -27626541.88748 -21505512.92547  20039367.5394   20039362.1334
  -2425258.71547  -1882323.00843  24641884.4924   24641880.0554
 09  4  4  1 32  0.0000000  0  9G20G16G 2G23G 7G25G 4G13G29
 -11135569.36747  -8666216.77344  23589590.6094   23589585.1644
  -5935482.90247  -4608177.34945  22792900.3674   22792894.6684
 -16103643.43747 -12537524.93645  22195773.1884   22195767.2464
 -26498371.83648 -20627035.92246  20547430.5234   20547423.5474
 -13003376.55147 -10124206.28145  22656897.8914   22656892.8874
 -19773288.40648 -15396268.21246  21156697.4694   21156693.1914
 -14575613.24648 -11335374.24445  22490637.3984   22490633.9264
 -27651876.14148 -21525253.90847  20034546.4384   20034541.2274
  -2456430.82447  -1906612.91943  24635952.5704   24635948.7274
 09  4  4  1 32 30.0000000  0  9G20G16G 2G23G 7G25G 4G13G29
 -11032319.12547  -8585762.07644  23609237.7504   23609233.2974
  -5973953.22747  -4638154.20645  22785579.2344   22785573.5204
 -16125911.08248 -12554876.35246  22191536.4304   22191529.8594
 -26458696.36348 -20596119.97346  20554980.6414   20554973.2304
 -13113319.11747 -10209875.78145  22635976.2584   22635971.5744
 -19840644.29748 -15448753.29646  21143880.1024   21143875.6644
 -14514368.71148 -11287651.24345  22502291.9774   22502288.6214
 -27676701.59048 -21544598.40047  20029822.5634   20029816.9924
  -2487036.49247  -1930461.48344  24630128.6644   24630124.1024
 09  4  4  1 33  0.0000000  0  9G20G16G 2G23G 7G25G 4G13G29
 -10928897.36347  -8505173.73044  23628919.1174   23628914.0664
  -6011821.32447  -4667661.80545  22778372.7194   22778367.3364
 -16147529.16848 -12571721.62346  22187422.3984   22187415.8444
 -26418583.10948 -20564862.89546  20562613.5314   20562606.4264
 -13222971.26647 -10295318.98245  22615110.0784   22615105.5634
 -19907522.99648 -15500866.55446  21131153.5784   21131148.9654
 -14452661.45748 -11239567.70445  22514034.2504   22514030.9384
 -27701018.26648 -21563546.46447  20025195.2894   20025189.9104
  -2517074.92247  -1953868.07143  24624412.1954   24624407.9304
 09  4  4  1 33 30.0000000  0  9G20G16G 2G23G 7G25G 4G13G29
 -10825307.10947  -8424454.15944  23648631.1884   23648626.6484
  -6049087.38347  -4696700.26645  22771282.1414   22771275.9574
 -16168498.59847 -12588061.43945  22183431.6174   22183425.4144
 -26378034.38748 -20533266.49746  20570329.9844   20570322.7034
 -13332332.22347 -10380535.27545  22594299.6174   22594294.7734
 -19973924.45748 -15552607.94146  21118517.8134   21118513.0514
 -14390495.47348 -11191126.70945  22525864.4924   22525860.6174
 -27724827.18748 -21582098.86947  20020664.5634   20020659.4694
  -2546546.78547  -1976833.14144  24618803.9534   24618799.7624
 09  4  4  1 34  0.0000000  0  9G20G16G 2G23G 7G25G 4G13G29
 -10721549.39547  -8343604.03344  23668375.7274   23668371.0514
  -6085749.21547  -4725267.92145  22764304.6884   22764299.6484
 -16188818.44947 -12603895.09446  22179565.3914   22179558.4064
 -26337050.69948 -20501331.16346  20578128.9774   20578121.7344
 -13441398.92647 -10465522.27545  22573544.4304   22573539.8714
 -20039846.67648 -15603975.87346  21105973.3524   21105968.3794
 -14327872.12148 -11142329.29845  22537781.1564   22537777.2704
 -27748127.27748 -21600254.78647  20016230.5394   20016225.2234
  -2575450.17647  -1999355.25043  24613304.6334   24613300.0984
 09  4  4  1 34 30.0000000  0  9G20G16G 2G23G 7G25G 4G13G29
 -10617629.15647  -8262627.24744  23688150.8054   23688145.7704
  -6121808.57847  -4753366.12845  22757442.8984   22757437.7274
 -16208490.52747 -12619223.99245  22175821.6644   22175815.2154
 -26295635.79348 -20469059.81046  20586009.9304   20586002.8954
 -13550172.16047 -10550280.60446  22552845.8284   22552841.3324
 -20105291.23448 -15654971.60846  21093519.4384   21093515.0204
 -14264796.63347 -11093179.59645  22549784.1724   22549780.6884
 -27770921.36748 -21618016.41647  20011893.1254   20011887.6604
  -2603787.21547  -2021436.03344  24607911.7664   24607907.7814
 09  4  4  1 35  0.0000000  0  9G20G16G 2G23G 7G25G 4G13G29
 -10513542.40247  -8181520.76444  23707958.0864   23707953.5784
  -6157258.16847  -4780989.16545  22750697.7664   22750691.6764
 -16227508.97347 -12634043.56245  22172202.6724   22172196.1604
 -26253785.18748 -20436448.95246  20593973.9224   20593966.7664
 -13658643.71947 -10634803.85745  22532204.4064   22532199.2074
 -20170251.16448 -15705589.70746  21081157.9694   21081153.2464
 -14201265.86747 -11043675.11145  22561873.5314   22561870.0004
 -27793203.38748 -21635379.01547  20007652.7814   20007647.5634
  -2631551.49247  -2043070.51843  24602627.7424   24602624.2664
 09  4  4  1 35 30.0000000  0  9G20G16G 2G23G 7G25G 4G13G29
 -10409294.44146  -8100288.63244  23727795.5084   23727791.4184
  -6192100.47347  -4808139.01345  22744067.2734   22744061.5704
 -16245876.49247 -12648355.91945  22168707.2274   22168700.6954
 -26211503.29348 -20403502.02046  20602019.7734   20602012.4574
 -13766814.31247 -10719092.59245  22511620.2664   22511615.2584
 -20234728.67648 -15755831.90946  21068888.3444   21068883.7424
 -14137285.53148 -10993820.33245  22574048.4844   22574044.8164
 -27814976.30948 -21652344.93847  20003509.6804   20003504.2304
  -2658745.57447  -2064260.71844  24597453.3984   24597449.4144
 09  4  4  1 36  0.0000000  0  9G20G16G 2G23G 7G25G 4G13G29
 -10304887.74647  -8018932.79944  23747664.0784   23747659.2154
  -6226334.51247  -4834814.89245  22737553.3524   22737547.0704
 -16263593.03148 -12662161.02245  22165336.0634   22165329.8674
 -26168791.67648 -20370220.23946  20610147.1954   20610140.5314
 -13874683.09847 -10803146.15045  22491092.5704   22491088.7074
 -20298722.98848 -15805697.57846  21056710.6174   21056706.1374
 -14072858.71547 -10943617.65845  22586308.5944   22586305.1134
 -27836240.58648 -21668914.49747  19999463.3054   19999458.0004
  -2685368.99247  -2085006.24144  24592386.9064   24592383.1994
 09  4  4  1 36 30.0000000  0  9G20G16G 2G23G 7G25G 4G13G29
 -10200322.84046  -7937453.72144  23767561.6334   23767557.3524
  -6259957.83647  -4861014.86245  22731155.2734   22731148.3284
 -16280657.34047 -12675457.90346  22162088.9384   22162082.4184
 -26125650.30148 -20336603.59946  20618357.1414   20618349.7194
 -13982246.48047 -10886961.72845  22470624.5004   22470619.8134
 -20362231.80148 -15855184.94346  21044625.3054   21044620.7664
 -14007986.51647 -10893067.91445  22598653.4454   22598649.5944
 -27856994.71548 -21685086.54747  19995514.0474   19995508.3874
  -2711420.09446  -2105305.79144  24587429.4614   24587426.0124
 09  4  4  1 37  0.0000000  0  9G20G16G 2G23G 7G25G 4G13G29
 -10095603.69546  -7855854.43144  23787489.5944   23787484.8364
  -6292971.44947  -4886739.74845  22724871.5704   22724866.6254
 -16297071.18447 -12688247.91345  22158965.3834   22158959.1054
 -26082082.35248 -20302654.55246  20626647.7504   20626640.6214
 -14089504.49647 -10970539.37645  22450213.9454   22450209.1764
 -20425256.05148 -15904294.73246  21032632.0554   21032627.1604
 -13942673.48447 -10842174.65645  22611082.0704   22611078.5044
 -27877240.62548 -21700862.58047  19991661.2504   19991655.6134
  -2736899.91446  -2125160.16144  24582580.7344   24582577.3284
 09  4  4  1 37 30.0000000  0  9G20G16G 2G23G 7G25G 4G13G29
  -9990732.06646  -7774136.33944  23807445.0704   23807441.3524
  -6325373.57047  -4911988.14045  22718706.4774   22718700.4534
 -16312833.35947 -12700530.13545  22155966.0314   22155959.5434
 -26038088.28148 -20268373.45946  20635019.8134   20635012.6024
 -14196453.53147 -11053876.25945  22429861.8284   22429857.6724
 -20487793.77348 -15953025.40246  21020731.6094   21020726.7544
 -13876921.54747 -10790939.41245  22623594.4614   22623590.9964
 -27896977.53948 -21716241.99647  19987905.5314   19987900.3634
  -2761807.20747  -2144568.41744  24577841.0474   24577837.3794
 09  4  4  1 38  0.0000000  0  9G20G16G 2G23G 7G25G 4G13G29
  -9885710.14146  -7692301.11043  23827431.0084   23827426.6914
  -6357163.94547  -4936759.84545  22712656.5084   22712651.1214
 -16327944.57447 -12712305.11346  22153090.5314   22153084.0394
 -25993669.96148 -20233761.78246  20643472.0474   20643465.0744
 -14303092.37947 -11136971.41845  22409569.6484   22409564.8094
 -20549844.61748 -16001376.68346  21008923.8364   21008918.6804
 -13810733.69547 -10739364.48345  22636189.5314   22636185.7504
 -27916205.88348 -21731225.11547  19984246.4924   19984241.1334
  -2786142.11747  -2163530.68544  24573209.9614   24573206.8204
 09  4  4  1 38 30.0000000  0  9G20G16G 2G23G 7G25G 4G13G29
  -9780537.46546  -7610348.49144  23847443.7894   23847440.4184
  -6388339.09847  -4961052.16345  22706724.3444   22706718.9104
 -16342402.12547 -12723570.74845  22150339.5704   22150333.0274
 -25948826.39148 -20198818.74946  20652005.3914   20651998.5084
 -14409416.71147 -11219821.52246  22389336.4694   22389331.8284
 -20611405.32848 -16049346.05146  20997209.1024   20997204.5634
 -13744110.63347 -10687450.41945  22648867.8284   22648863.7774
 -27934923.48848 -21745810.26747  19980684.4614   19980679.0044
  -2809901.62947  -2182044.61544  24568689.1094   24568685.1994
 09  4  4  1 39  0.0000000  0  9G20G16G 2G23G 7G25G 4G13G29
  -9675216.94546  -7528280.60044  23867485.8134   23867481.8164
  -6418898.34047  -4984864.52945  22700908.5084   22700903.3364
 -16356206.36347 -12734327.30446  22147712.7114   22147706.0234
 -25903559.10248 -20163545.53446  20660619.3134   20660612.2304
 -14515424.66847 -11302425.08546  22369163.8284   22369159.4224
 -20672475.19148 -16096932.94546  20985587.8284   20985582.8874
 -13677055.00047 -10635199.30645  22661627.7194   22661623.8714
 -27953130.35548 -21759997.43647  19977220.0554   19977214.4414
  -2833085.85947  -2200110.21744  24564277.3524   24564273.6294
 09  4  4  1 39 30.0000000  0  9G20G16G 2G23G 7G25G 4G13G29
  -9569750.86346  -7446099.27644  23887556.0394   23887552.2934
  -6448841.43047  -5008196.81645  22695210.5474   22695205.7304
 -16369357.82047 -12744575.20245  22145209.8204   22145203.4064
 -25857870.12948 -20127943.74846  20669313.8524   20669306.7074
 -14621114.89547 -11384781.08345  22349051.6414   22349047.1954
 -20733053.87548 -16144137.08646  20974060.3054   20974055.6374
 -13609570.24247 -10582613.80545  22674469.3364   22674465.5944
 -27970827.13748 -21773787.13247  19973852.3364   19973846.6334
  -2855694.53547  -2217727.35744  24559975.1724   24559971.2544
 09  4  4  1 40  0.0000000  0  9G20G16G 2G23G 7G25G 4G13G29
  -9464142.21946  -7363806.94544  23907651.9224   23907648.3164
  -6478168.45347  -5031049.02945  22689630.1024   22689624.7234
 -16381857.16048 -12754314.94846  22142831.1564   22142824.7344
 -25811761.55948 -20092014.98946  20678088.3134   20678080.9964
 -14726486.23847 -11466888.59745  22329000.4304   22328995.4844
 -20793141.32848 -16190958.46746  20962625.5784   20962621.1524
 -13541659.90247 -10529696.68145  22687392.6484   22687388.8634
 -27988014.78548 -21787180.10747  19970581.6484   19970576.3834
  -2877728.54747  -2234896.72844  24555782.6024   24555778.5204
 09  4  4  1 40 30.0000000  0  9G20G16G 2G23G 7G25G 4G13G29
  -9358391.76646  -7281404.01743  23927776.1804   23927772.1214
  -6506877.60247  -5053419.80645  22684166.5084   22684161.1454
 -16393703.25447 -12763545.67246  22140577.3364   22140570.5434
 -25765233.49648 -20055759.36846  20686942.1724   20686934.7934
 -14831535.41447 -11548745.06446  22309009.8834   22309005.2234
 -20852735.47748 -16237395.44046  20951285.3364   20951280.4884
 -13473325.46147 -10476449.07745  22700396.1804   22700392.5984
 -28004692.40648 -21800175.65447  19967408.0944   19967402.2234
  -2899186.26247  -2251616.99644  24551698.6414   24551695.3874
 09  4  4  1 41  0.0000000  0  9G20G16G 2G23G 7G25G 4G13G29
  -9252502.15646  -7198892.68043  23947926.0704   23947921.9534
  -6534968.11347  -5075308.50045  22678821.1484   22678816.3484
 -16404896.66048 -12772267.81346  22138447.0234   22138440.5594
 -25718287.54348 -20019178.11446  20695875.5864   20695868.1844
 -14936260.67247 -11630349.14546  22289081.3284   22289076.8594
 -20911835.62148 -16283447.48346  20940039.1094   20940034.1524
 -13404569.92247 -10422873.35945  22713480.0394   22713476.8554
 -28020860.05948 -21812773.82347  19964331.5164   19964326.0434
  -2920066.91447  -2267887.66944  24547725.2974   24547721.6374
 09  4  4  1 41 30.0000000  0  9G20G16G 2G23G 7G25G 4G13G29
  -9146476.27046  -7116275.14743  23968102.0554   23968098.4024
  -6562440.02747  -5096715.15945  22673593.4304   22673588.2114
 -16415438.16047 -12780481.98446  22136441.1174   22136434.4884
 -25670926.03948 -19982273.04746  20704888.2344   20704881.0124
 -15040660.91047 -11711699.96446  22269214.5164   22269209.8954
 -20970441.80548 -16329114.61846  20928886.8284   20928882.0784
 -13335396.96147 -10368972.38645  22726643.1334   22726639.4844
 -28036518.85548 -21824975.47847  19961351.7664   19961346.2274
  -2940371.45747  -2283709.34944  24543861.5944   24543857.6564
 09  4  4  1 42  0.0000000  0  9G20G16G 2G23G 7G25G 4G13G29
  -9040312.62546  -7033550.30343  23988304.5634   23988300.2464
  -6589289.46947  -5117636.81245  22668484.5634   22668478.9654
 -16425324.76248 -12788185.84146  22134559.9614   22134553.3134
 -25623147.14548 -19945042.74546  20713979.9694   20713972.8484
 -15144731.03947 -11792793.54846  22249410.8594   22249405.8914
 -21028550.09048 -16374393.79646  20917829.2274   20917824.3524
 -13265806.11347 -10314745.75345  22739885.6884   22739882.7464
 -28051665.50048 -21836778.06347  19958469.2194   19958464.0274
  -2960096.57046  -2299079.59044  24540108.2194   24540103.7704
 09  4  4  1 42 30.0000000  0  9G20G16G 2G23G 7G25G 4G13G29
  -8934015.01246  -6950721.01243  24008532.6174   24008527.5664
  -6615517.04347  -5138073.88745  22663493.8754   22663488.1524
 -16434557.78548 -12795380.40046  22132802.9144   22132796.3954
 -25574953.32848 -19907489.12746  20723151.2814   20723144.2344
 -15248470.10247 -11873629.16346  22229669.9844   22229665.3874
 -21086160.79748 -16419285.23146  20906865.9774   20906861.1644
 -13195801.19547 -10260196.50345  22753207.4924   22753203.6954
 -28066301.30948 -21848182.57547  19955684.2814   19955678.4734
  -2979243.00847  -2313998.82844  24536464.6564   24536460.5784
 09  4  4  1 43  0.0000000  0  9G20G16G 2G23G 7G25G 4G13G29
  -8827586.81646  -6867790.01843  24028785.9384   24028780.9734
  -6641123.11347  -5158026.66245  22658620.5784   22658615.2544
 -16443138.41048 -12802066.61646  22131169.7274   22131163.6174
 -25526347.21948 -19869614.23446  20732400.5234   20732393.6564
 -15351877.51647 -11954206.37146  22209992.1414   22209987.3524
 -21143274.29348 -16463789.24347  20895997.6254   20895992.9774
 -13125386.44147 -10205327.88445  22766607.2734   22766603.5354
 -28080427.80148 -21859190.22847  19952995.8444   19952990.5664
  -2997811.82446  -2328468.02744  24532930.6804   24532926.9964
 09  4  4  1 43 30.0000000  0  9G20G16G 2G23G 7G25G 4G13G29
  -8721028.80546  -6784757.86243  24049063.3364   24049058.0634
  -6666105.94547  -5177493.79945  22653866.6644   22653861.3594
 -16451065.95348 -12808243.92746  22129661.7194   22129655.0904
 -25477329.16848 -19831418.35846  20741728.3754   20741721.2854
 -15454950.19147 -12034522.72046  22190378.2664   22190373.6054
 -21199888.79348 -16507904.42247  20885224.4924   20885219.5234
 -13054563.40247 -10150141.11745  22780084.0704   22780080.7074
 -28094043.93448 -21869800.20247  19950404.9384   19950399.6134
  -3015801.73847  -2342486.14444  24529507.3674   24529503.4774
 09  4  4  1 44  0.0000000  0 10G20G16G10G 2G23G 7G25G 4G13G29
  -8614343.58646  -6701626.58643  24069364.1954   24069359.9844
  -6690465.53547  -5196475.27745  22649231.0164   22649225.9304
   1445680.62156   1137754.53053  24897677.6254   24897674.0474
 -16458340.94548 -12813912.76546  22128276.9844   22128270.6024
 -25427901.05948 -19792902.95646  20751134.2274   20751127.3134
 -15557686.53147 -12114577.00746  22170828.0554   22170823.1134
 -21256003.94948 -16551630.49946  20874546.0234   20874541.2384
 -12983335.39847 -10094638.82145  22793638.0634   22793634.6724
 -28107150.56248 -21880013.15847  19947910.9774   19947905.3444
  -3033212.95747  -2356053.34344  24526194.4384   24526190.5594
 09  4  4  1 44 30.0000000  0 10G20G16G10G 2G23G 7G25G 4G13G29
  -8507539.96146  -6618403.02343  24089687.8754   24089683.6174
  -6714208.37947  -5214976.19145  22644713.1724   22644707.6764
   1324282.09846   1043158.31743  24874576.0084   24874572.1844
 -16464970.80148 -12819078.89946  22127015.2344   22127009.0234
 -25378071.25448 -19754074.52946  20760616.5704   20760609.9384
 -15660091.59047 -12194373.13246  22151340.4304   22151336.1644
 -21311625.89148 -16594972.26246  20863961.3594   20863956.9694
 -12911712.25447 -10038828.58945  22807267.9224   22807264.6954
 -28119754.51248 -21889834.42047  19945512.4224   19945507.1214
  -3050051.96547  -2369174.62144  24522989.7504   24522986.3634
 09  4  4  1 45  0.0000000  0 10G20G16G10G 2G23G 7G25G 4G13G29
  -8400623.52746  -6535091.55943  24110033.2814   24110029.6294
  -6737337.16847  -5232998.63045  22640311.9774   22640306.0864
   1202978.19146    948635.88143  24851492.2424   24851488.3954
 -16470959.02748 -12823745.05246  22125875.9224   22125869.5594
 -25327844.56248 -19714936.85846  20770174.5704   20770167.5664
 -15762166.86747 -12273912.30646  22131916.6954   22131911.8284
 -21366757.35248 -16637931.82346  20853470.3284   20853465.7544
 -12839700.12547  -9982715.27045  22820971.5164   22820967.9574
 -28131859.41448 -21899266.80047  19943209.2974   19943203.2974
  -3066322.25047  -2381852.75444  24519894.0634   24519890.0824
 09  4  4  1 45 30.0000000  0 10G20G16G10G 2G23G 7G25G 4G13G29
  -8293599.26246  -6451696.09643  24130399.2584   24130395.2384
  -6759853.80947  -5250544.05845  22636026.7504   22636021.3014
   1081767.72346    854186.28243  24828426.6484   24828422.6054
 -16476308.42248 -12827913.42446  22124857.7344   22124851.5904
 -25277224.88348 -19675492.94846  20779807.0784   20779800.1914
 -15863912.77747 -12353194.79746  22112555.2034   22112550.3054
 -21421400.12148 -16680510.59647  20843072.2114   20843067.4304
 -12767304.39847  -9926303.03445  22834748.1254   22834744.5434
 -28143468.17248 -21908312.59347  19940999.8054   19940994.2194
  -3082026.07046  -2394089.48444  24516905.8594   24516901.3324
 09  4  4  1 46  0.0000000  0 10G20G16G10G 2G23G 7G25G 4G13G29
  -8186464.64546  -6368214.65143  24150788.0554   24150782.2074
  -6781753.60247  -5267608.83245  22631860.1484   22631854.2074
    960656.43046    759813.96343  24805380.0234   24805375.8714
 -16481015.17648 -12831581.03346  22123962.0634   22123955.6684
 -25226209.34848 -19635740.59546  20789515.1094   20789508.2974
 -15965323.23847 -12432215.91946  22093257.2194   22093252.6764
 -21475549.23048 -16722704.69547  20832767.7974   20832762.8014
 -12694523.44947  -9869590.64445  22848597.5164   22848594.1954
 -28154576.43448 -21916968.37847  19938885.9454   19938880.7704
  -3097159.23846  -2405881.54844  24514025.3594   24514021.3014
 09  4  4  1 46 30.0000000  0 10G20G16G10G 2G23G 7G25G 4G13G29
  -8079220.62946  -6284647.95243  24171194.9844   24171190.7704
  -6803034.70747  -5284191.50645  22627809.7504   22627804.3404
    839648.48446    665522.03543  24782352.9844   24782348.2624
 -16485078.45748 -12834747.23946  22123188.9224   22123182.9024
 -25174798.23048 -19595679.98746  20799298.0554   20799291.2624
 -16066395.03547 -12510973.14446  22074023.7814   22074019.2504
 -21529202.82048 -16764512.67547  20822557.7734   20822553.1804
 -12621359.25047  -9812579.59545  22862520.1884   22862516.6914
 -28165183.15648 -21925233.35947  19936867.6024   19936862.2664
  -3111720.24647  -2417227.77444  24511254.8834   24511251.1134
 09  4  4  1 47  0.0000000  0 10G20G16G10G 2G23G 7G25G 4G13G29
  -7971864.71546  -6200993.99043  24191623.8984   24191620.1914
  -6823692.14847  -5300288.21045  22623879.0164   22623873.7154
    718750.39146    571315.80843  24759346.7814   24759342.7234
 -16488493.89148 -12837408.62146  22122538.8134   22122532.6804
 -25122988.41448 -19555308.70546  20809157.2194   20809150.1954
 -16167121.66847 -12589461.41546  22054856.3674   22054851.5044
 -21582355.48048 -16805930.32247  20812443.3284   20812438.5234
 -12547809.87147  -9755268.42345  22876516.0004   22876512.6094
 -28175284.23448 -21933104.32347  19934945.5314   19934939.5354
  -3125704.37947  -2428124.49644  24508593.7974   24508589.9804
 09  4  4  1 47 30.0000000  0 10G20G16G10G 2G23G 7G25G 4G13G29
  -7864397.29346  -6117253.21643  24212074.7504   24212070.8134
  -6843723.62547  -5315897.13445  22620067.3914   22620061.6094
    597965.78546    477197.99143  24736361.9304   24736357.7894
 -16491260.27748 -12839564.24446  22122012.5474   22122006.3594
 -25070779.35548 -19514626.32046  20819092.1334   20819085.2664
 -16267499.63347 -12667677.98246  22035755.0704   22035749.9964
 -21635004.76648 -16846955.72747  20802424.3594   20802419.5664
 -12473876.24247  -9697657.82845  22890585.2114   22890581.7774
 -28184877.79348 -21940579.81847  19933119.7344   19933114.3954
  -3139110.04347  -2438570.46844  24506042.5944   24506038.8874
 09  4  4  1 48  0.0000000  0 10G20G16G10G 2G23G 7G25G 4G13G29
  -7756821.55946  -6033428.05543  24232544.8674   24232541.4264
  -6863129.86347  -5331018.87645  22616374.3834   22616369.0594
    477295.17646    383168.98643  24713399.8984   24713395.0394
 -16493379.08648 -12841215.27646  22121609.4304   22121603.2304
 -25018173.73448 -19473634.94446  20829103.0554   20829095.7934
 -16367527.82847 -12745622.00646  22016720.1564   22016715.2194
 -21687151.20748 -16887589.30547  20792501.1334   20792496.5434
 -12399562.66847  -9639751.18445  22904726.8444   22904722.8324
 -28193965.46148 -21947661.11447  19931390.6174   19931385.1334
  -3151938.31246  -2448566.51144  24503601.5234   24503597.6844
 09  4  4  1 48 30.0000000  0 10G20G16G10G 2G23G 7G25G 4G13G29
  -7649137.47746  -5949518.42843  24253036.0004   24253032.7734
  -6881908.33647  -5345651.46545  22612800.9224   22612795.4924
    356742.96946    289232.24743  24690458.5864   24690454.9574
 -16494848.69148 -12842360.43246  22121329.6724   22121323.5274
 -24965170.76648 -19432333.93746  20839189.0164   20839181.7194
 -16467202.32447 -12823290.42346  21997752.7344   21997747.9104
 -21738792.09848 -16927828.94947  20782674.4774   20782669.4884
 -12324869.57447  -9581548.79745  22918940.3674   22918937.1914
 -28202545.30148 -21954346.70347  19929757.8204   19929752.3014
  -3164186.96146  -2458110.88244  24501270.7504   24501266.9494
 09  4  4  1 49  0.0000000  0 10G20G16G10G 2G23G 7G25G 4G13G29
  -7541349.44146  -5865527.82843  24273547.9304   24273544.2034
  -6900060.95347  -5359796.35045  22609346.6884   22609341.2154
    236309.07046    195387.72243  24667541.2034   24667537.0824
 -16495671.88748 -12843001.88946  22121173.0944   22121167.1134
 -24911774.41048 -19390726.38046  20849349.9694   20849342.7774
 -16566523.52347 -12900683.53546  21978852.2344   21978847.5124
 -21789929.03548 -16967675.89747  20772943.2424   20772938.6884
 -12249802.35247  -9523054.89445  22933225.0084   22933221.7114
 -28210619.76248 -21960638.49247  19928221.3594   19928215.8014
  -3175858.70746  -2467205.78544  24499049.7814   24499046.2114
 09  4  4  1 49 30.0000000  0 11G20G16G10G 2G23G 7G25G 8G 4G13G29
  -7433458.41446  -5781456.96743  24294079.0084   24294075.7344
  -6917586.17647  -5373452.35745  22606011.4844   22606006.2304
    115996.59846    101637.86043  24644646.5314   24644642.8674
 -16495847.78948 -12843138.95546  22121139.8204   22121133.5434
 -24857984.53548 -19348812.21446  20859585.9304   20859578.8324
 -16665488.26248 -12977798.88646  21960019.8054   21960015.0704
 -21840560.19148 -17007128.73547  20763308.6024   20763303.6524
   1445267.23055   1135663.92353  25438639.9694   25438636.3404
 -12174362.61347  -9464270.69845  22947580.9224   22947577.5744
 -28218188.04747 -21966535.85247  19926781.0164   19926775.5044
  -3186951.57046  -2475849.55644  24496938.4304   24496935.1294
 09  4  4  1 50  0.0000000  0 11G20G16G10G 2G23G 7G25G 8G 4G13G29
  -7325474.03547  -5697313.38443  24314630.4924   24314624.3284
  -6934491.42247  -5386625.27645  22602793.9614   22602789.3484
     -4200.40646      7977.88443  24621773.8914   24621769.4654
 -16495384.71948 -12842778.13546  22121227.4694   22121221.5204
 -24803810.38748 -19306598.59046  20869894.8444   20869887.9614
 -16764102.31247 -13054640.97246  21941254.3284   21941249.8014
 -21890692.60248 -17046192.93147  20753768.3524   20753763.7544
   1320145.10246   1038166.16842  25414829.6804   25414826.8674
 -12098560.84847  -9405204.41245  22962005.2814   22962002.2734
 -28225257.98447 -21972044.88747  19925435.7584   19925429.9574
  -3197473.67246  -2484048.55644  24494936.4384   24494932.3324
 09  4  4  1 50 30.0000000  0 11G20G16G10G 2G23G 7G25G 8G 4G13G29
  -7217404.89546  -5613103.73343  24335193.0314   24335188.9734
  -6950782.74647  -5399319.81145  22599694.5004   22599689.2384
   -124286.35246    -85595.53843  24598921.6724   24598917.9844
 -16494289.96148 -12841925.08546  22121436.4534   22121430.0084
 -24749260.10548 -19264091.87846  20880275.1804   20880268.3674
 -16862370.20747 -13131213.33046  21922555.0784   21922549.6644
 -21940332.38348 -17084873.26047  20744322.3284   20744317.7814
   1195023.92646    940669.13143  25391019.7734   25391017.9694
 -12022406.72747  -9345863.56645  22976497.3284   22976493.7974
 -28231836.37947 -21977170.90747  19924183.4844   19924178.3444
  -3207431.71547  -2491808.08744  24493041.3914   24493037.2624
 09  4  4  1 51  0.0000000  0 11G20G16G10G 2G23G 7G25G 8G 4G13G29
  -7109252.02346  -5528828.83443  24355773.5704   24355769.8834
  -6966459.19147  -5411535.23045  22596711.9614   22596705.8874
   -244258.14546   -179079.91243  24576091.5164   24576087.7384
 -16492562.86748 -12840579.30746  22121764.7424   22121758.7384
 -24694334.08648 -19221292.39046  20890727.6334   20890720.6804
 -16960289.37947 -13207513.95746  21903921.3054   21903916.5124
 -21989477.80948 -17123168.37847  20734970.3594   20734965.5984
   1069906.23146    843174.87142  25367210.9454   25367208.7894
 -11945901.89847  -9286249.43245  22991055.0474   22991051.9924
 -28237922.55148 -21981913.38247  19923025.7894   19923020.0044
  -3216824.74646  -2499127.30444  24491253.7114   24491249.9884
 09  4  4  1 51 30.0000000  0 11G20G16G10G 2G23G 7G25G 8G 4G13G29
  -7001015.35246  -5444488.66543  24376371.8594   24376366.9344
  -6981517.91847  -5423269.31645  22593846.0944   22593840.7274
   -364111.11746   -272471.80343  24553285.0234   24553280.8634
 -16490201.88348 -12838739.58146  22122214.1884   22122207.8244
 -24639031.30548 -19178199.33746  20901251.7114   20901244.3324
 -17057855.53947 -13283539.51246  21885354.8754   21885350.0944
 -22038126.00848 -17161076.05547  20725712.8054   20725708.2154
    944796.27346    745686.56443  25343403.6564   25343400.2194
 -11869047.06647  -9226362.58845  23005680.5784   23005677.1644
 -28243514.21548 -21986270.52447  19921961.3524   19921956.2194
  -3225650.52346  -2506004.55144  24489574.5394   24489570.3794
 09  4  4  1 52  0.0000000  0 11G20G16G10G 2G23G 7G25G 8G 4G13G29
  -6892690.00446  -5360079.34643  24396983.4224   24396980.8014
  -6995951.94147  -5434516.59945  22591099.5164   22591093.9454
   -483836.77746   -365764.44143  24530501.3444   24530497.7194
 -16487201.15648 -12836401.35746  22122785.0084   22122778.8324
 -24583346.80948 -19134808.82246  20911847.7664   20911840.7774
 -17155060.10247 -13359283.29346  21866857.4924   21866852.7504
 -22086269.96148 -17198590.81447  20716551.4694   20716546.3204
    819702.14146    648210.63343  25319598.5004   25319596.4414
 -11791838.38347  -9166200.00245  23020373.2584   23020369.4734
 -28248605.48848 -21990237.74647  19920992.8754   19920987.1994
  -3233902.67246  -2512434.77144  24488003.8284   24488000.4844
 09  4  4  1 52 30.0000000  0 11G20G16G10G 2G23G 7G25G 8G 4G13G29
  -6784278.40647  -5275602.84943  24417617.1954   24417611.0124
  -7009761.28147  -5445277.12445  22588471.8054   22588465.7424
   -603432.72746   -458956.06043  24507743.6564   24507739.2274
 -16483561.15648 -12833564.99346  22123477.5164   22123471.7234
 -24527281.79748 -19091121.80146  20922516.7424   20922509.4534
 -17251901.03947 -13434743.74246  21848429.3834   21848424.7504
 -22133908.77048 -17235711.94647  20707486.1884   20707481.2584
    694625.87146    550748.71943  25295797.5474   25295795.4494
 -11714278.78547  -9105763.98645  23035132.2274   23035128.3714
 -28253196.59448 -21993815.23347  19920119.0004   19920113.6414
  -3241581.18046  -2518418.03744  24486542.5394   24486539.7734
 09  4  4  1 53  0.0000000  0 11G20G16G10G 2G23G 7G25G 8G 4G13G29
  -6675781.37947  -5191059.83243  24438263.3594   24438257.1174
  -7022944.59847  -5455549.84045  22585962.7194   22585957.1484
   -722895.81646   -552044.12343  24485009.8054   24485006.0514
 -16479281.32448 -12830230.07746  22124292.2194   22124285.7544
 -24470836.85248 -19047138.74146  20933257.6174   20933250.8244
 -17348375.61748 -13509918.70746  21830070.6884   21830065.8554
 -22181041.21148 -17272438.51847  20698517.0004   20698512.1604
    569569.94546    453302.61143  25272000.4454   25271997.6684
 -11636370.04747  -9045055.87445  23049957.9694   23049954.0314
 -28257286.66848 -21997002.29947  19919340.7974   19919335.0474
  -3248685.50446  -2523953.89544  24485191.3834   24485187.6644
 09  4  4  1 53 30.0000000  0 11G20G16G10G 2G23G 7G25G 8G 4G13G29
  -6567201.18446  -5106451.91843  24458922.7814   24458919.4884
  -7035502.14847  -5465334.92945  22583572.9614   22583567.3014
   -842224.86746   -645027.70643  24462302.0634   24462298.8874
 -16474362.99648 -12826397.62046  22125227.9774   22125221.7074
 -24414013.63348 -19002860.91146  20944070.9774   20944063.7304
 -17444482.14148 -13584806.87746  21811782.3834   21811777.6134
 -22227666.96948 -17308770.25847  20689644.3834   20689639.4534
    444535.68846    355873.47843  25248207.3524   25248204.2344
 -11558115.66847  -8984078.45845  23064849.2664   23064845.2704
 -28260876.39848 -21999799.50147  19918657.7814   19918652.2344
  -3255215.57446  -2529042.26744  24483948.5784   24483944.6174
 09  4  4  1 54  0.0000000  0 11G20G16G10G 2G23G 7G25G 8G 4G13G29
  -6458539.81646  -5021780.81743  24479601.5314   24479596.8874
  -7047433.21147  -5474631.87645  22581302.8594   22581296.8444
   -961417.42246   -737904.96843  24439620.7894   24439616.4774
 -16468806.51648 -12822067.90046  22126285.6884   22126279.2074
 -24356813.60248 -18958289.46146  20954955.8204   20954948.4884
 -17540218.58248 -13659406.67346  21793564.2814   21793559.2624
 -22273785.41048 -17344706.69646  20680868.4144   20680863.4964
    319525.28546    258462.89143  25224418.5164   25224415.5314
 -11479518.10547  -8922833.63045  23079805.9844   23079802.2624
 -28263965.85948 -22002206.86747  19918069.9384   19918064.3874
  -3261171.89546  -2533683.53644  24482815.4224   24482811.3014
 09  4  4  1 54 30.0000000  0 11G20G16G10G 2G23G 7G25G 8G 4G13G29
  -6349795.23046  -4937044.84843  24500294.4534   24500290.6484
  -7058734.35547  -5483437.95345  22579152.1724   22579146.3484
  -1080467.62146   -830671.27243  24416966.0784   24416962.3324
 -16462608.91448 -12817238.60245  22127464.6414   22127458.6454
 -24299234.16448 -18913422.37646  20965912.4844   20965905.5864
 -17635579.25048 -13733713.66446  21775417.8674   21775412.7504
 -22319392.11348 -17380244.36647  20672189.4224   20672184.6334
    194544.20746    161075.19943  25200635.4924   25200632.0704
 -11400576.59447  -8861320.76245  23094828.1804   23094824.2704
 -28266551.73448 -22004221.83547  19917577.9774   19917572.3594
  -3266550.68746  -2537874.79544  24481791.5394   24481787.4454
 09  4  4  1 55  0.0000000  0 11G20G16G10G 2G23G 7G25G 8G 4G13G29
  -6240968.85546  -4852245.16543  24521001.6804   24521000.1764
  -7069404.72347  -5491752.54245  22577121.6254   22577115.9144
  -1199372.12146   -923324.06443  24394339.2894   24394335.1724
 -16455769.82448 -12811909.44646  22128766.0634   22128759.8284
 -24241276.10248 -18868260.26246  20976941.7034   20976934.4964
 -17730561.38748 -13807725.68846  21757343.0234   21757338.1724
 -22364485.71548 -17415382.23147  20663608.5314   20663603.6804
     69595.14846     63712.45443  25176857.9924   25176854.8054
 -11321292.94947  -8799541.35544  23109915.2114   23109911.4494
 -28268633.43748 -22005843.94147  19917181.5474   19917175.9414
  -3271351.50446  -2541615.67244  24480877.8754   24480874.2034
 09  4  4  1 55 30.0000000  0 11G20G16G10G 2G23G 7G25G 8G 4G13G29
  -6132064.67647  -4767384.81943  24541728.5164   24541723.5474
  -7079445.47347  -5499576.47345  22575211.0634   22575205.1764
  -1318130.60247  -1015863.01843  24371740.3594   24371736.2624
 -16448292.18448 -12806082.72646  22130189.1724   22130183.0164
 -24182942.52748 -18822805.52746  20988042.3754   20988035.1414
 -17825164.92648 -13881442.70546  21739340.5784   21739335.6994
 -22409067.62948 -17450121.36147  20655124.8054   20655120.2344
    -55322.08246    -33625.51843  25153086.6174   25153083.5744
 -11241672.12547  -8737499.18145  23125066.5554   23125062.9344
 -28270212.97348 -22007074.73747  19916880.8834   19916875.6174
  -3275576.08246  -2544907.55144  24480073.9064   24480070.3524
 09  4  4  1 56  0.0000000  0 11G20G16G10G 2G23G 7G25G 8G 4G13G29
  -6023082.01646  -4682463.40943  24562466.3054   24562462.4534
  -7088853.88747  -5506907.73145  22573420.4924   22573414.9064
  -1436738.35946  -1108284.59943  24349169.3364   24349165.7234
 -16440173.75048 -12799756.67645  22131734.0314   22131728.1764
 -24124231.80948 -18777056.92446  20999214.6724   20999206.9924
 -17919385.23848 -13954861.11146  21721411.0474   21721406.1024
 -22453134.47748 -17484459.15747  20646739.2814   20646734.6094
   -180203.10946   -130935.29243  25129322.6724   25129319.4494
 -11161714.13347  -8675194.27544  23140281.8364   23140278.5044
 -28271287.69948 -22007912.18847  19916676.3594   19916670.8794
  -3279222.19546  -2547748.69344  24479380.2664   24479376.5234
 09  4  4  1 56 30.0000000  0 11G20G16G10G 2G23G 7G25G 8G 4G13G29
  -5914021.99646  -4597481.46943  24583219.2814   24583216.3834
  -7097629.49647  -5513745.86745  22571750.4304   22571744.7664
  -1555192.59046  -1200586.56843  24326629.6334   24326624.7034
 -16431415.05548 -12792931.73546  22133400.7584   22133394.7194
 -24065145.07048 -18731015.32146  21010458.3914   21010451.0234
 -18013219.83248 -14027978.95146  21703554.9924   21703550.0274
 -22496685.48048 -17518394.98947  20638451.7974   20638446.8364
   -305045.59846   -228215.05743  25105566.0944   25105562.7664
 -11081421.39847  -8612628.53744  23155561.0394   23155557.8094
 -28271857.89548 -22008356.49447  19916567.8364   19916562.5394
  -3282289.90646  -2550139.11944  24478796.8524   24478792.6484
 09  4  4  1 57  0.0000000  0 11G20G16G10G 2G23G 7G25G 8G 4G13G29
  -5804886.56246  -4512441.04943  24603987.2274   24603984.8284
  -7105772.30547  -5520090.88745  22570201.2344   22570195.5634
  -1673490.77346  -1292766.87443  24304116.8674   24304113.5634
 -16422016.73448 -12785608.39245  22135189.4454   22135183.0784
 -24005683.96948 -18684681.99846  21021773.3284   21021766.2934
 -18106667.16848 -14100795.03546  21685772.7504   21685767.8014
 -22539720.08248 -17551928.43547  20630262.7194   20630257.8984
   -429847.34046   -325462.97843  25081816.7974   25081813.2894
 -11000796.68747  -8549804.10344  23170903.3834   23170900.0084
 -28271923.87948 -22008407.91347  19916555.2584   19916550.0084
  -3284778.91846  -2552078.60944  24478322.9534   24478319.0744
 09  4  4  1 57 30.0000000  0 11G20G16G10G 2G23G 7G25G 8G 4G13G29
  -5695677.91846  -4427343.50643  24624769.5314   24624765.8984
  -7113282.13747  -5525942.71145  22568771.4384   22568766.4104
  -1791630.98446  -1384824.15143  24281636.1884   24281632.3524
 -16411979.92648 -12777787.51645  22137099.1724   22137093.2544
 -23945849.86748 -18638058.03446  21033159.5474   21033152.4144
 -18199724.83648 -14173307.47446  21668064.0004   21668059.2154
 -22582237.83248 -17585059.12947  20622171.8674   20622166.6804
   -554606.85246   -422678.12743  25058075.6564   25058071.7584
 -10919842.95747  -8486723.29645  23186308.3914   23186304.9104
 -28271485.87948 -22008066.60947  19916638.8594   19916633.3204
  -3286689.85246  -2553567.67144  24477959.0394   24477955.4344
 09  4  4  1 58  0.0000000  0 11G20G16G10G 2G23G 7G25G 8G 4G13G29
  -5586398.54746  -4342190.69443  24645563.5944   24645561.7074
  -7120159.60947  -5531301.76945  22567463.7344   22567457.3014
  -1909611.63346  -1476757.01943  24259185.1644   24259181.0274
 -16401305.91448 -12769470.10545  22139130.3984   22139124.0084
 -23885644.60948 -18591144.85046  21044616.0474   21044609.3524
 -18292391.74648 -14245515.43246  21650430.1724   21650425.4534
 -22624238.81648 -17617787.15147  20614179.1254   20614174.3754
   -679322.85546   -519859.32543  25034342.6884   25034339.6254
 -10838563.74247  -8423388.87944  23201774.9454   23201772.0744
 -28270544.68048 -22007333.20447  19916818.0314   19916812.4064
  -3288023.43446  -2554606.80844  24477705.3594   24477701.3554
 09  4  4  1 58 30.0000000  0 11G20G16G10G 2G23G 7G25G 8G 4G13G29
  -5477049.35246  -4256983.73843  24666371.8204   24666369.7034
  -7126404.23047  -5536167.70945  22566275.0234   22566269.6294
  -2027429.69146  -1568563.26843  24236764.7894   24236760.8634
 -16389994.97748 -12760656.40545  22141282.8284   22141276.5084
 -23825068.75448 -18543942.89546  21056143.3834   21056136.4144
 -18384665.44148 -14317416.98946  21632871.1334   21632866.3984
 -22665721.91048 -17650111.62247  20606285.2344   20606280.1724
   -803992.90246   -617004.70643  25010618.7114   25010615.7934
 -10756961.05947  -8359802.40045  23217303.6884   23217300.6414
 -28269100.03947 -22006207.50647  19917092.7504   19917087.3594
  -3288779.90246  -2555196.27444  24477560.9534   24477557.7774
 09  4  4  1 59  0.0000000  0 11G20G16G10G 2G23G 7G25G 8G 4G13G29
  -5367630.91046  -4171722.63043  24687194.3054   24687191.5474
  -7132013.78547  -5540538.78245  22565207.7194   22565201.7194
  -2145081.13346  -1660239.62243  24214376.9224   24214372.6954
 -16378045.63348 -12751345.24445  22143556.7194   22143550.3594
 -23764121.71148 -18496451.70346  21067741.4144   21067734.2234
 -18476541.96148 -14389009.04946  21615387.3674   21615382.6564
 -22706684.66448 -17682030.63147  20598490.3054   20598485.6764
   -928613.20746   -714111.34643  24986904.0474   24986900.8554
 -10675035.95347  -8295964.69145  23232893.7584   23232890.2584
 -28267150.18748 -22004688.13847  19917463.8054   19917458.3634
  -3288956.89846  -2555334.19544  24477527.3284   24477523.7274
 09  4  4  1 59 30.0000000  0 11G20G16G10G 2G23G 7G25G 8G 4G13G29
  -5258147.99246  -4086411.32743  24708029.6254   24708024.9264
  -7136991.30547  -5544417.37145  22564260.2344   22564254.8524
  -2262566.36346  -1751786.49543  24192019.2894   24192015.6294
 -16365461.98048 -12741539.81345  22145951.1414   22145944.9774
 -23702807.98848 -18448674.77946  21079408.9144   21079401.7934
 -18568022.56648 -14460292.61146  21597979.3284   21597974.6644
 -22747129.68448 -17713546.21847  20590793.8284   20590788.8054
  -1053184.93046   -811180.16243  24963199.1024   24963195.5634
 -10592794.02047  -8231880.08744  23248544.2274   23248540.3794
 -28264698.62148 -22002777.83047  19917930.0864   19917924.7854
  -3288557.98046  -2555023.35944  24477603.7274   24477600.3094
 09  4  4  2  0  0.0000000  0 11G20G16G10G 2G23G 7G25G 8G 4G13G29
  -5148600.07046  -4001049.27143  24728876.2504   24728871.6884
  -7141334.94547  -5547802.01945  22563433.5704   22563428.2384
  -2379880.84846  -1843200.29143  24169695.5314   24169691.6644
 -16352242.86348 -12731239.21645  22148466.8524   22148460.7664
 -23641126.80948 -18400611.54546  21091146.6804   21091139.3524
 -18659103.04748 -14531264.39046  21580647.0784   21580642.2194
 -22787054.39548 -17744656.37447  20583196.3594   20583191.2814
  -1177703.64546   -908207.72143  24939503.7114   24939500.2384
 -10510236.12547  -8167549.30844  23264253.8834   23264250.6914
 -28261743.51648 -22000475.15447  19918492.8054   19918487.1804
  -3287581.30546  -2554262.31144  24477789.3754   24477785.8834
 09  4  4  2  0 30.0000000  0 11G20G16G10G 2G23G 7G25G 8G 4G13G29
  -5038984.46546  -3915634.64943  24749732.9774   24749730.5234
  -7145039.75847  -5550688.88845  22562728.3524   22562723.0434
  -2497017.91846  -1934475.85343  24147404.6024   24147401.1294
 -16338384.39148 -12720440.41545  22151103.8134   22151097.4414
 -23579074.72748 -18352259.27646  21102954.2734   21102947.3204
 -18749776.79748 -14601919.22846  21563392.5314   21563387.8324
 -22826453.64548 -17775357.06747  20575698.9144   20575693.8594
  -1302163.03946  -1005189.04843  24915820.5004   24915816.9964
 -10427360.50447  -8102970.92145  23280024.8984   23280021.5314
 -28258280.33248 -21997776.55847  19919151.5704   19919146.0204
  -3286022.88746  -2553047.96344  24478085.9774   24478082.9454
 09  4  4  2  1  0.0000000  0 11G20G16G10G 2G23G 7G25G 8G 4G13G29
  -4929307.29345  -3830172.07743  24770604.0634   24770601.0434
  -7148109.97347  -5553081.26145  22562144.7194   22562138.7974
  -2613979.55146  -2025614.74143  24125147.4454   24125142.8714
 -16323891.89848 -12709147.58245  22153862.1174   22153855.4964
 -23516657.62548 -18303622.58046  21114832.0314   21114825.0474
 -18840046.27048 -14672259.05846  21546214.9774   21546209.7894
 -22865331.34048 -17805651.36447  20568300.6024   20568295.9184
  -1426565.63746  -1102126.05243  24892147.0234   24892143.8324
 -10344174.16847  -8038150.43345  23295854.6804   23295851.1644
 -28254313.92248 -21994685.85047  19919906.5314   19919901.0744
  -3283887.34846  -2551383.89144  24478492.5314   24478488.7274
 09  4  4  2  1 30.0000000  0 11G20G16G10G 2G23G 7G25G 8G 4G13G29
  -4819570.84446  -3744663.18943  24791486.5394   24791482.7114
  -7150546.38747  -5554979.75945  22561681.3444   22561675.1214
  -2730763.25446  -2116614.90843  24102924.6254   24102920.7344
 -16308766.90648 -12697361.90245  22156740.1484   22156733.9104
 -23453876.96548 -18254702.60246  21126778.8914   21126771.7384
 -18929909.68448 -14742282.47346  21529114.4384   21529109.4104
 -22903687.16448 -17835539.00147  20561001.5944   20560996.6884
  -1550909.57447  -1199017.41943  24868484.8594   24868482.1054
 -10260680.25847  -7973090.29244  23311743.0554   23311739.5204
 -28249844.76248 -21991203.38647  19920756.9774   19920751.4574
  -3281175.08646  -2549270.43444  24479008.3914   24479004.3484
 09  4  4  2  2  0.0000000  0 11G20G16G10G 2G23G 7G25G 8G 4G13G29
  -4709775.14146  -3659108.18843  24812379.0084   24812376.3284
  -7152347.50047  -5556383.23045  22561338.1644   22561332.2464
  -2847365.37546  -2207473.68243  24080736.1254   24080732.1644
 -16293008.66448 -12685082.75646  22159738.9614   22159732.5164
 -23390732.62148 -18205499.21846  21138794.7424   21138787.6764
 -19019363.77348 -14811986.93046  21512092.2114   21512087.0434
 -22941519.41848 -17865018.66447  20553802.6094   20553797.8164
  -1675191.32847  -1295860.32743  24844835.0164   24844832.1024
 -10176879.83247  -7907791.28644  23327689.9774   23327686.1524
 -28244871.91848 -21987328.43747  19921703.3914   19921697.7464
  -3277885.22346  -2546706.92044  24479634.3674   24479630.8204
 09  4  4  2  2 30.0000000  0 11G20G16G10G 2G23G 7G25G 8G 4G13G29
  -4599920.92246  -3573507.50442  24833284.2114   24833281.7664
  -7153511.94947  -5557290.56245  22561116.8594   22561110.3794
  -2963782.14846  -2298187.98643  24058582.0004   24058578.2274
 -16276616.51248 -12672309.66145  22162857.9454   22162851.9264
 -23327224.56248 -18156012.44046  21150880.1564   21150872.7774
 -19108404.87948 -14881369.59246  21495148.1484   21495142.9924
 -22978826.02348 -17894088.73347  20546703.3204   20546698.3794
  -1799407.54746  -1392652.20344  24821197.7194   24821194.4694
 -10092774.52747  -7842254.69544  23343694.6804   23343690.9064
 -28239393.74248 -21983059.73147  19922745.5944   19922739.8834
  -3274016.94946  -2543692.67944  24480371.0944   24480367.5204
 09  4  4  2  3  0.0000000  0 11G20G16G10G 2G23G 7G25G 8G 4G13G29
  -4490013.21546  -3487865.26642  24854200.6254   24854196.3444
  -7154043.00847  -5557704.38645  22561015.2504   22561009.7154
  -3080014.39546  -2388758.45043  24036464.0084   24036460.0984
 -16259595.13748 -12659046.25945  22166097.0784   22166090.9184
 -23263357.38748 -18106245.81146  21163033.5164   21163026.3714
 -19197034.77348 -14950431.82246  21478282.3284   21478277.2854
 -23015610.17648 -17922751.69047  20539703.6174   20539698.5864
  -1923560.02046  -1489394.39943  24797572.5234   24797568.9734
 -10008370.38747  -7776485.28845  23359756.1484   23359752.6954
 -28233414.48848 -21978400.56547  19923883.5634   19923878.0124
  -3269573.69146  -2540230.41244  24481216.4064   24481212.3404
 09  4  4  2  3 30.0000000  0 11G20G16G10G 2G23G 7G25G 8G 4G13G29
  -4380053.28946  -3402182.30942  24875125.0004   24875121.4264
  -7153940.51247  -5557624.51145  22561034.9144   22561029.2154
  -3196059.32446  -2479183.05743  24014381.4844   24014377.9264
 -16241944.97348 -12645292.89845  22169456.0944   22169449.5634
 -23199131.89848 -18056199.98846  21175255.1334   21175248.0824
 -19285250.87148 -15019171.61846  21461495.2664   21461490.2544
 -23051870.88348 -17951006.77547  20532803.5234   20532798.5594
  -2047646.29746  -1586084.99443  24773959.4454   24773956.1254
  -9923669.92247  -7710484.95745  23375874.0554   23375870.6994
 -28226933.75448 -21973350.64147  19925116.9304   19925111.2814
  -3264555.61346  -2536320.20744  24482171.0084   24482167.3674
 09  4  4  2  4  0.0000000  0 11G20G16G10G 2G23G 7G25G 8G 4G13G29
  -4270040.81246  -3316458.30243  24896059.4534   24896056.3714
  -7153202.10947  -5557049.13845  22561175.6884   22561169.4264
  -3311912.02046  -2569457.87043  23992335.6564   23992331.2504
 -16223664.64548 -12631048.50546  22172934.4304   22172928.4064
 -23134547.07048 -18005874.15746  21187545.5164   21187538.5944
 -19373049.13348 -15087585.82346  21444788.1414   21444783.0164
 -23087605.34448 -17978851.79747  20526003.2734   20525998.5044
  -2171661.56246  -1682720.19243  24750359.9924   24750356.2814
  -9838673.29747  -7644253.85544  23392048.5474   23392045.0784
 -28219949.62948 -21967908.46147  19926445.7344   19926439.9224
  -3258960.77046  -2531960.57144  24483236.0554   24483232.0744
 09  4  4  2  4 30.0000000  0 11G20G16G10G 2G23G 7G25G 8G 4G13G29
  -4159978.39846  -3230695.44743  24917003.9844   24917001.0744
  -7151829.26247  -5555979.37245  22561436.4924   22561430.7584
  -3427571.02746  -2659581.73943  23970326.1884   23970322.2584
 -16204755.94148 -12616314.46545  22176532.6414   22176527.0274
 -23069604.76248 -17955269.75746  21199903.6254   21199896.3714
 -19460428.16448 -15155673.36646  21428160.1334   21428155.3244
 -23122813.95748 -18006287.07047  20519303.2814   20519298.3834
  -2295604.84446  -1779299.41243  24726774.5634   24726770.7194
  -9753384.12147  -7577794.76644  23408278.5864   23408275.0514
 -28212463.12548 -21962074.82747  19927870.3674   19927865.1804
  -3252790.75446  -2527152.77444  24484410.1804   24484406.1684
 09  4  4  2  5  0.0000000  0 11G20G16G10G 2G23G 7G25G 8G 4G13G29
  -4049866.48846  -3144894.20342  24937961.1954   24937953.8874
  -7149820.30147  -5554413.93945  22561819.1724   22561813.4574
  -3543032.47346  -2749551.61943  23948354.7974   23948351.0864
 -16185218.84048 -12601090.75345  22180250.7034   22180244.3874
 -23004305.18448 -17904386.97446  21212329.6884   21212322.2774
 -19547385.10948 -15223432.00946  21411612.7664   21411607.7664
 -23157495.23048 -18033311.41747  20512703.5234   20512698.7624
  -2419473.12946  -1875820.16143  24703202.6644   24703200.1764
  -9667804.10946  -7511109.06044  23424563.9224   23424560.6564
 -28204473.28548 -21955848.97247  19929390.7034   19929385.2234
  -3246044.51246  -2521895.98744  24485693.7664   24485690.3284
 09  4  4  2  5 30.0000000  0 11G20G16G10G 2G23G 7G25G 8G 4G13G29
  -3939709.49646  -3059057.61742  24958920.0474   24958916.1914
  -7147178.49647  -5552355.40045  22562321.4144   22562315.8594
  -3658296.46946  -2839367.70043  23926420.9614   23926416.2194
 -16165057.24248 -12585380.44045  22184087.3364   22184080.9844
 -22938652.64848 -17853229.16846  21224822.8204   21224815.6724
 -19633920.21948 -15290861.94846  21395145.8444   21395141.0394
 -23191651.38348 -18059926.60447  20506204.1484   20506199.0434
  -2543266.93046  -1972282.83343  24679645.1884   24679641.7974
  -9581938.54347  -7444200.89744  23440903.7894   23440900.1604
 -28195983.10548 -21949233.25747  19931006.1414   19931001.0554
  -3238725.10546  -2516192.52844  24487086.7274   24487082.6254
 09  4  4  2  6  0.0000000  0 11G20G16G10G 2G23G 7G25G 8G 4G13G29
  -3829507.39546  -2973185.84243  24979890.0004   24979887.0164
  -7143902.06247  -5549802.33845  22562945.0784   22562939.5944
  -3773358.90246  -2929026.64743  23904525.1094   23904520.7664
 -16144270.09448 -12569182.66945  22188043.0784   22188036.7154
 -22872646.38348 -17801795.72546  21237383.5944   21237376.5474
 -19720030.18748 -15357960.60246  21378759.5394   21378754.7704
 -23225280.25848 -18086130.90647  20499804.4844   20499799.7774
  -2666982.35246  -2068684.45443  24656103.3134   24656099.5084
  -9495788.41047  -7377070.92944  23457297.5394   23457294.0744
 -28186991.23048 -21942226.59647  19932717.7274   19932711.9774
  -3230831.46946  -2510041.67244  24488588.7114   24488584.8324
 09  4  4  2  6 30.0000000  0 11G20G16G10G 2G23G 7G25G 8G 4G13G29
  -3719263.25446  -2887281.41143  25000870.8204   25000866.1414
  -7139992.52047  -5546755.94145  22563689.4384   22563683.3444
  -3888218.50446  -3018527.62543  23882667.6804   23882663.4064
 -16122859.87148 -12552499.39046  22192117.4064   22192110.6524
 -22806288.66048 -17750088.41046  21250010.7664   21250003.8524
 -19805714.48448 -15424727.57846  21362454.5704   21362449.5664
 -23258382.77748 -18111925.05347  20493505.2274   20493500.3794
  -2790618.60546  -2165024.32343  24632575.8674   24632572.6844
  -9409357.71947  -7309722.39044  23473744.6174   23473741.3244
 -28177499.24648 -21934830.23947  19934523.8754   19934518.4264
  -3222365.18746  -2503444.55844  24490199.4614   24490196.1484
 09  4  4  2  7  0.0000000  0 11G20G16G10G 2G23G 7G25G 8G 4G13G29
  -3608978.40646  -2801345.24443  25021853.9844   25021853.0704
  -7135449.71547  -5543216.08845  22564554.8364   22564547.8594
  -4002872.40646  -3107868.26043  23860849.5864   23860845.1564
 -16100827.29748 -12535331.17545  22196309.8364   22196303.0234
 -22739580.30548 -17698107.88846  21262705.0784   21262698.0084
 -19890970.36348 -15491160.71646  21346230.6484   21346225.1214
 -23290958.02348 -18137308.36047  20487306.4844   20487301.9264
  -2914173.21546  -2261300.64543  24609064.6724   24609061.0044
  -9322648.80547  -7242157.01344  23490245.1024   23490241.4614
 -28167507.06648 -21927044.13247  19936425.3134   19936419.8594
  -3213326.61746  -2496401.52544  24491919.8054   24491916.1174
 09  4  4  2  7 30.0000000  0 11G20G16G10G 2G23G 7G25G 8G 4G13G29
  -3498655.41447  -2715379.33642  25042851.8834   25042846.7504
  -7130274.91847  -5539183.79745  22565539.2894   22565532.6914
  -4117318.94946  -3197047.29343  23839071.3204   23839067.4344
 -16078174.62148 -12517679.74446  22200620.5234   22200614.2894
 -22672524.00048 -17645856.22946  21275465.5084   21275458.4924
 -19975796.89548 -15557259.29346  21330088.3594   21330083.8054
 -23323006.65648 -18162281.30347  20481207.6254   20481202.8054
  -3037645.48046  -2357512.77643  24585568.6564   24585565.4924
  -9235665.21546  -7174377.59944  23506797.1954   23506793.8714
 -28157015.96148 -21918869.23647  19938421.5704   19938416.0594
  -3203717.27046  -2488913.70144  24493747.6954   24493744.7304
 09  4  4  2  8  0.0000000  0 11G20G16G10G 2G23G 7G25G 8G 4G13G29
  -1812876.46146  -1401785.47543  25363642.8984   25363639.1884
  -5549045.73847  -4307057.16945  22866435.9774   22866430.5044
  -2656128.61346  -2058457.39243  24117126.4304   24117121.6684
 -14479480.77748 -11271944.30745  22504841.9774   22504835.9844
 -21029699.83248 -16365733.51446  21588084.5234   21588077.2154
 -18484766.62548 -14395417.50746  21613821.9384   21613817.1604
 -21779104.44548 -16959240.61547  20775002.6484   20774997.8874
  -1585605.89146  -1226053.32343  24861882.5554   24861879.1844
  -7572989.84046  -5878786.43144  23823193.8284   23823190.5704
 -26570603.90248 -20682703.99347  20240305.7584   20240300.5984
  -1618115.27346  -1253379.69544  24795478.7034   24795474.4414
 09  4  4  2  8 30.0000000  0 11G20G16G10G 2G23G 7G25G 8G 4G13G29
  -1702478.56646  -1315761.03942  25384649.4534   25384647.2734
  -5542604.08247  -4302037.69345  22867661.8364   22867656.2074
  -2770149.03946  -2147304.43443  24095429.6094   24095424.7774
 -14455587.35548 -11253326.07345  22509389.0474   22509382.6644
 -20961947.05148 -16312939.14946  21600977.4384   21600970.5314
 -18568725.32048 -14460839.84946  21597845.4454   21597840.3364
 -21810095.15648 -16983389.21247  20769105.3984   20769100.2344
  -1708903.07446  -1322128.98543  24838419.7034   24838416.3364
  -7485461.50047  -5810582.56244  23839850.2344   23839846.6254
 -26559112.27748 -20673749.47747  20242492.3754   20242486.9454
  -1607362.28146  -1245000.77244  24797524.1804   24797520.6254
 09  4  4  2  9  0.0000000  0 10G16G10G 2G23G 7G25G 8G 4G13G29
  -5535531.87947  -4296526.88545  22869007.8134   22869002.3634
  -2883954.88346  -2235984.29343  24073772.5944   24073768.0634
 -14431077.94148 -11234227.83345  22514052.9144   22514046.3984
 -20893850.44547 -16259876.85846  21613935.9064   21613928.7194
 -18652249.59447 -14525923.68046  21581951.2034   21581946.2624
 -21840558.87948 -17007127.16547  20763308.0944   20763303.3404
  -1832112.19146  -1418136.08044  24814973.9454   24814971.0554
  -7397667.40247  -5742171.61544  23856556.4304   23856553.5664
 -26547123.19548 -20664407.33347  20244774.1564   20244768.6844
  -1596040.90646  -1236178.88843  24799678.3594   24799675.1804
 09  4  4  2  9 30.0000000  0 10G16G10G 2G23G 7G25G 8G 4G13G29
  -5527825.10247  -4290521.60745  22870473.9064   22870468.9964
  -2997539.14846  -2324491.44343  24052157.9924   24052154.1524
 -14405949.34048 -11214647.11445  22518834.2734   22518828.6294
 -20825406.78948 -16206544.15346  21626960.2114   21626953.2074
 -18735333.04347 -14590664.01446  21566140.7344   21566135.9884
 -21870490.77348 -17030450.70547  20757612.3674   20757607.5004
  -1955226.55546  -1514069.28844  24791546.2664   24791543.0824
  -7309605.64147  -5673552.10544  23873314.3754   23873310.4304
 -26534632.80548 -20654674.55847  20247150.7194   20247145.4384
  -1584147.23846  -1226911.14244  24801942.6414   24801938.7624
 09  4  4  2 10  0.0000000  0 10G16G10G 2G23G 7G25G 8G 4G13G29
  -5519478.74647  -4284017.94144  22872062.5164   22872057.1414
  -3110893.76646  -2412819.67743  24030587.3284   24030583.6134
 -14380197.14148 -11194580.49045  22523734.8364   22523728.8674
 -20756611.78948 -16152937.65446  21640051.3364   21640044.3364
 -18817968.25448 -14655055.07046  21550416.0004   21550411.2934
 -21899884.98848 -17053355.27947  20752018.9304   20752013.9184
  -2078238.50047  -1609922.67244  24768137.2814   24768134.5784
  -7221273.55947  -5604721.92244  23890123.2194   23890120.1254
 -26521635.71948 -20644546.96247  20249624.0084   20249618.8134
  -1571676.57846  -1217193.76344  24804315.6954   24804311.5394
 09  4  4  2 10 30.0000000  0 10G16G10G 2G23G 7G25G 8G 4G13G29
  -5510484.51247  -4277009.42945  22873774.5234   22873768.7194
  -3224007.95346  -2500960.57443  24009062.6414   24009058.5514
 -14353814.02748 -11174022.23146  22528755.4534   22528749.5234
 -20687458.18447 -16099051.74746  21653210.4454   21653203.6844
 -18900144.98447 -14719088.86946  21534778.3054   21534773.4884
 -21928732.94948 -17075834.19647  20746529.2344   20746524.2034
  -2201137.57446  -1705688.11744  24744750.8204   24744747.7894
  -7132665.46547  -5535676.70444  23906984.8524   23906981.4144
 -26508124.06648 -20634018.39747  20252195.2504   20252189.9024
  -1558620.55147  -1207020.20144  24806799.7504   24806796.1844
 09  4  4  2 11  0.0000000  0 10G16G10G 2G23G 7G25G 8G 4G13G29
  -5500842.84047  -4269496.43945  22875608.5084   22875603.0904
  -3336878.58646  -2588911.66444  23987584.1564   23987579.8954
 -14326801.34048 -11152973.38946  22533895.9844   22533889.9574
 -20617947.26647 -16044887.40146  21666438.5314   21666431.6334
 -18981861.09047 -14782763.74346  21519228.3444   21519223.2304
 -21957034.31248 -17097887.19047  20741143.8054   20741138.9224
  -2323921.69946  -1801363.94144  24721385.2734   24721382.1524
  -7043784.05947  -5466418.53344  23923898.2664   23923895.0314
 -26494097.91848 -20623088.92847  20254864.4694   20254858.9454
  -1544980.22346  -1196391.39444  24809396.0234   24809391.6764
 09  4  4  2 11 30.0000000  0 10G16G10G 2G23G 7G25G 8G 4G13G29
  -5490560.14147  -4261483.94945  22877565.5164   22877560.4574
  -3449509.09446  -2676675.65744  23966151.3984   23966146.3444
 -14299166.50447 -11131439.77346  22539154.6094   22539148.6294
 -20548086.12147 -15990450.14246  21679732.4844   21679725.8674
 -19063120.82847 -14846083.00246  21503765.0314   21503759.8914
 -21984794.62948 -17119518.60047  20735860.8914   20735856.5274
  -2446594.76246  -1896953.30444  24698041.5394   24698038.2624
  -6954637.79347  -5396953.91044  23940862.1884   23940859.3094
 -26479563.58648 -20611763.47847  20257630.1724   20257624.8204
  -1530762.55547  -1185312.71944  24812100.7814   24812097.2544
 09  4  4  2 12  0.0000000  0 10G16G10G 2G23G 7G25G 8G 4G13G29
  -5479639.08247  -4252974.04145  22879643.4064   22879638.3364
  -3561899.49246  -2764252.50843  23944763.9534   23944759.2154
 -14270912.98847 -11109424.06845  22544530.9694   22544524.9844
 -20477878.39547 -15935742.84046  21693092.5704   21693085.6214
 -19143924.87947 -14909047.17946  21488388.3674   21488383.2464
 -22012016.09048 -17140730.10547  20730680.7034   20730675.6414
  -2569157.03947  -1992456.29744  24674718.6484   24674714.9344
  -6865231.64847  -5327286.80844  23957875.9304   23957873.0084
 -26464524.00048 -20600044.32247  20260492.1484   20260486.5124
  -1515970.15646  -1173786.14444  24814916.0394   24814912.0274
 09  4  4  2 12 30.0000000  0 10G16G10G 2G23G 7G25G 8G 4G13G29
  -5468081.35947  -4243968.02345  22881842.9694   22881837.6334
  -3674047.92646  -2851640.84443  23923422.3134   23923418.5514
 -14242042.96147 -11086927.94945  22550025.1334   22550018.7894
 -20407325.93748 -15880766.90946  21706518.2344   21706511.2114
 -19224271.86747 -14971655.21146  21473099.1484   21473094.0084
 -22038699.24648 -17161522.16647  20725603.4304   20725598.4454
  -2691607.50047  -2087872.15044  24651416.7664   24651414.1644
  -6775569.38747  -5257420.18044  23974938.1174   23974935.0744
 -26448980.39148 -20587932.41947  20263450.1724   20263444.5474
  -1500604.85946  -1161813.25544  24817840.2584   24817836.0314
 09  4  4  2 13  0.0000000  0 10G16G10G 2G23G 7G25G 8G 4G13G29
  -5455889.90647  -4234468.18345  22884162.9774   22884157.7814
  -3785954.75847  -2938840.91444  23902127.7034   23902123.2154
 -14212560.90647 -11063954.94045  22555635.3914   22555628.5664
 -20336432.98848 -15825525.65746  21720008.8204   21720002.2344
 -19304162.89148 -15033907.93746  21457896.0864   21457891.2544
 -22064846.74248 -17181896.82747  20720627.6024   20720622.5634
  -2813946.60547  -2183201.27144  24628136.6094   24628133.3524
  -6685656.53147  -5187358.24644  23992047.9614   23992044.9024
 -26432936.07848 -20575430.35047  20266503.2504   20266497.7464
  -1484670.01647  -1149396.38144  24820871.8364   24820868.3834
 09  4  4  2 13 30.0000000  0 10G16G10G 2G23G 7G25G 8G 4G13G29
  -5443063.93047  -4224473.92345  22886603.8364   22886598.6024
  -3897615.75047  -3025849.43244  23880879.1644   23880874.5274
 -14182466.74248 -11040504.95245  22561361.8594   22561355.5204
 -20265199.89548 -15770019.36446  21733564.1094   21733556.8444
 -19383595.05548 -15095803.10746  21442780.8364   21442775.7774
 -22090457.24248 -17201853.05347  20715754.0004   20715749.2624
  -2936171.11347  -2278441.07844  24604878.0394   24604874.8134
  -6595494.57847  -5117102.21644  24009204.9694   24009202.1914
 -26416390.24648 -20562537.49447  20269651.8594   20269646.3284
  -1468165.38346  -1136535.63944  24824012.7034   24824009.0084
 09  4  4  2 14  0.0000000  0 10G16G10G 2G23G 7G25G 8G 4G13G29
  -5429605.21547  -4213986.62045  22889165.2814   22889159.6684
  -4009029.20747  -3112665.06244  23859678.0314   23859673.2504
 -14151762.77747 -11016579.80245  22567204.4614   22567198.2584
 -20193628.26248 -15714249.26246  21747183.6724   21747177.0204
 -19462567.18048 -15157339.81146  21427752.8524   21427748.0864
 -22115531.26648 -17221391.23847  20710982.7034   20710978.0274
  -3058279.76647  -2373590.64244  24581641.4064   24581638.1604
  -6505087.00447  -5046654.78844  24026409.2584   24026406.1724
 -26399343.78948 -20549254.53247  20272895.6484   20272890.1484
  -1451092.64547  -1123232.29443  24827262.0234   24827258.3014
 09  4  4  2 14 30.0000000  0 11G24G16G10G 2G23G 7G25G 8G 4G13G29
   3052418.21956   2387246.11153  25340671.8984   25340668.8204
  -5415516.84447  -4203008.66845  22891845.9144   22891840.3794
  -4120195.23847  -3199287.90444  23838523.3914   23838519.2274
 -14120453.34047 -10992182.86445  22573162.4844   22573156.4304
 -20121722.35948 -15658218.70046  21760866.8674   21760859.9304
 -19541080.30548 -15218518.85246  21412812.1484   21412807.2544
 -22140071.50848 -17240513.49947  20706312.9614   20706307.8284
  -3180273.38347  -2468650.49044  24558426.4844   24558423.4144
  -6414439.29347  -4976020.24744  24043659.3674   24043655.8134
 -26381800.28948 -20535584.27947  20276234.0944   20276228.4064
  -1433455.42247  -1109488.93744  24830617.7034   24830614.2974
 09  4  4  2 15  0.0000000  0 11G24G16G10G 2G23G 7G25G 8G 4G13G29
   2960375.67646   2315524.68243  25323156.3284   25323153.4924
  -5400807.14547  -4191546.58145  22894645.2894   22894639.8794
  -4231118.85547  -3285721.85744  23817415.3984   23817411.1644
 -14088547.45347 -10967321.15245  22579234.2344   22579227.8834
 -20049491.01248 -15601934.54646  21774612.3524   21774605.1564
 -19619140.18048 -15279344.71646  21397958.1804   21397952.8134
 -22164085.29748 -17259225.52747  20701743.0784   20701738.3284
  -3302157.29747  -2563624.88743  24535232.3284   24535229.3834
  -6323561.95747  -4905206.79044  24060952.7974   24060949.3754
 -26363767.40248 -20521532.67447  20279665.2114   20279659.9534
  -1415262.05147  -1095312.31343  24834079.8204   24834076.0044
 09  4  4  2 15 30.0000000  0 11G24G16G10G 2G23G 7G25G 8G 4G13G29
   2868661.70346   2244059.29843  25305704.2584   25305700.4694
  -5385483.67247  -4179606.18145  22897560.7664   22897555.2894
  -4341804.40247  -3371970.29944  23796352.5234   23796348.7274
 -14056053.23847 -10942001.00845  22585417.4774   22585411.2934
 -19976942.40248 -15545403.16646  21788417.4694   21788410.5204
 -19696751.76248 -15339821.25746  21383189.1804   21383183.7974
 -22187579.41848 -17277532.62047  20697272.4384   20697267.0744
  -3423936.33647  -2658517.66143  24512058.7974   24512055.9534
  -6232464.28147  -4834221.64744  24078288.1564   24078284.6684
 -26345252.82448 -20507105.73847  20283188.8054   20283183.1684
  -1396520.36747  -1080708.41243  24837646.7504   24837642.3874
 09  4  4  2 16  0.0000000  0 11G24G16G10G 2G23G 7G25G 8G 4G13G29
   2777278.00446   2172851.22843  25288313.7424   25288310.8054
  -5369547.30147  -4167188.23945  22900593.7584   22900588.3324
  -4452249.54747  -3458031.40844  23775335.6724   23775331.5944
 -14022972.82447 -10916224.07345  22591712.6724   22591706.6644
 -19904078.12548 -15488625.82746  21802283.0634   21802276.1604
 -19773913.84048 -15399947.52546  21368505.5704   21368500.2894
 -22210554.19148 -17295435.04647  20692900.6254   20692895.6214
  -3545608.93047  -2753327.40743  24488905.1644   24488901.8484
  -6141149.61347  -4763067.38144  24095664.3754   24095661.2074
 -26326257.35548 -20492304.07147  20286803.1564   20286797.8134
  -1377231.57447  -1065678.17944  24841316.8984   24841313.1524
 09  4  4  2 16 30.0000000  0 11G24G16G10G 2G23G 7G25G 8G 4G13G29
   2686228.78946   2101903.83743  25270987.7664   25270984.7974
  -5352997.76247  -4154292.49545  22903742.6724   22903737.2274
  -4562451.16047  -3543902.72244  23754364.8984   23754360.5084
 -13989306.80947 -10889990.84345  22598119.1484   22598112.8954
 -19830898.34848 -15431602.63946  21816209.0084   21816201.5704
 -19850623.71148 -15459721.44546  21353908.0314   21353903.3484
 -22233008.50048 -17312931.89547  20688627.6094   20688622.5594
  -3667171.99247  -2848051.82944  24465772.7034   24465769.3914
  -6049619.52047  -4691745.28844  24113082.0394   24113079.0864
 -26306780.43048 -20477127.24047  20290509.6254   20290504.0164
  -1357395.61747  -1050221.60944  24845091.9304   24845087.9884
 09  4  4  2 17  0.0000000  0 11G24G16G10G 2G23G 7G25G 8G 4G13G29
   2595520.90646   2031222.37243  25253726.7584   25253723.7894
  -5335831.62947  -4140916.29145  22907009.6094   22907004.2854
  -4672401.59447  -3629578.36344  23733442.3524   23733438.1374
 -13955052.41047 -10863299.13245  22604637.2974   22604631.0594
 -19757400.07448 -15374331.25046  21830195.1884   21830188.1094
 -19926875.18048 -15519138.15146  21339397.7584   21339392.7974
 -22254937.99248 -17330019.79447  20684454.1954   20684449.4774
  -3788619.08247  -2942685.87744  24442662.2734   24442658.8954
  -5957872.44547  -4620254.09144  24130540.9614   24130537.9734
 -26286818.37548 -20461572.39747  20294308.6484   20294302.7234
  -1337009.23047  -1034336.10343  24848971.0944   24848967.1484
 09  4  4  2 17 30.0000000  0 11G24G16G10G 2G23G 7G25G 8G 4G13G29
   2505157.53946   1960809.47143  25236531.4304   25236528.1724
  -5318049.10247  -4127059.76944  22910393.4384   22910387.9224
  -4782097.88747  -3715055.93444  23712567.5234   23712563.2734
 -13920210.83247 -10836149.87145  22611267.4924   22611261.4614
 -19683584.30948 -15316812.49146  21844242.0314   21844234.9184
 -20002665.95348 -15578195.88546  21324975.4144   21324970.2034
 -22276342.21548 -17346698.41247  20680381.2274   20680376.3554
  -3909947.66447  -3037227.64044  24419574.2894   24419570.9574
  -5865910.79347  -4548595.69644  24148040.8364   24148037.5704
 -26266370.87948 -20445639.28447  20298199.2034   20298194.1054
  -1316072.97346  -1018022.10344  24852955.1954   24852951.2894
 09  4  4  2 18  0.0000000  0 11G24G16G10G 2G23G 7G25G 8G 4G13G29
   2415143.59846   1890668.70043  25219402.0164   25219398.7234
  -5299648.83647  -4112721.91045  22913894.7504   22913889.4024
  -4891535.52347  -3800332.01244  23691742.2814   23691737.5704
 -13884781.49248 -10808542.61345  22618009.5554   22618003.6644
 -19609449.93448 -15259045.46146  21858349.2664   21858342.1334
 -20077992.42248 -15636891.81846  21310641.0864   21310636.0434
 -22297218.80148 -17362965.87047  20676408.5554   20676403.5824
  -4031153.36347  -3131673.61944  24396509.1484   24396506.2114
  -5773735.16047  -4476770.58344  24165581.8594   24165578.1334
 -26245436.44948 -20429326.74047  20302183.2584   20302177.7194
  -1294585.55546  -1001278.68443  24857044.2734   24857040.1604
 09  4  4  2 18 30.0000000  0 11G24G16G10G 2G23G 7G25G 8G 4G13G29
   2325480.33646   1820801.31143  25202339.9844   25202336.3284
  -5280632.75047  -4097904.18645  22917513.6954   22917507.8484
  -5000712.83646  -3885405.20544  23670966.7504   23670961.8874
 -13848767.16447 -10780479.52645  22624863.3134   22624856.5824
 -19534999.64548 -15201032.26846  21872516.6334   21872509.8204
 -20152854.04348 -15695225.52046  21296395.4844   21296390.5314
 -22317569.04348 -17378823.18747  20672536.1334   20672530.8834
  -4152235.51247  -3226023.36244  24373468.0784   24373465.0314
  -5681349.37547  -4404781.72144  24183161.6414   24183158.3524
 -26224017.13748 -20412636.35947  20306258.9614   20306253.5204
  -1272549.21146   -984107.51944  24861237.9694   24861233.7464
 09  4  4  2 19  0.0000000  0 11G24G16G10G 2G23G 7G25G 8G 4G13G29
   2236172.98446   1751211.12843  25185344.9064   25185341.8594
  -5260999.68047  -4082605.69145  22921249.4844   22921243.9024
  -5109625.12546  -3970271.84744  23650241.0394   23650236.7344
 -13812167.32847 -10751960.19645  22631827.5084   22631821.6604
 -19460232.47347 -15142772.14146  21886744.5004   21886737.3094
 -20227246.67648 -15753193.79146  21282239.0234   21282234.2304
 -22337390.66448 -17394268.59647  20668764.0004   20668758.9494
  -4273189.96147  -3320273.52844  24350451.1414   24350448.0044
  -5588754.07847  -4332629.59544  24200781.5784   24200778.5044
 -26202111.07448 -20395566.70547  20310427.6954   20310422.4184
  -1249962.90246   -966507.79344  24865535.7274   24865531.7424
 09  4  4  2 19 30.0000000  0 11G24G16G10G 2G23G 7G25G 8G 4G13G29
   2147222.27346   1681898.95043  25168418.6954   25168415.1134
  -5240751.80547  -4066828.11244  22925102.7504   22925096.9614
  -5218271.44146  -4054931.32644  23629566.2814   23629561.7584
 -13774985.47348 -10722987.33645  22638903.3524   22638897.1254
 -19385151.45347 -15084267.45346  21901031.8594   21901024.6524
 -20301170.82847 -15810797.00446  21268171.7194   21268166.7154
 -22356685.55948 -17409303.56847  20665092.2504   20665087.3324
  -4394016.08247  -3414423.71644  24327458.8984   24327455.9574
  -5495953.50447  -4260317.48543  24218441.0394   24218438.3404
 -26179720.31248 -20378119.35547  20314688.4454   20314682.8284
  -1226829.58247   -948481.85143  24869937.7274   24869933.9224
 09  4  4  2 20  0.0000000  0 11G24G16G10G 2G23G 7G25G 8G 4G13G29
   2058631.78146   1612867.44343  25151560.4064   25151557.1954
  -5219889.10247  -4050571.49045  22929072.7584   22929067.1884
  -5326647.81646  -4139380.43744  23608942.8444   23608938.3554
 -13737222.28147 -10693561.50245  22646089.2894   22646082.9414
 -19309757.09847 -15025518.62046  21915378.9694   21915371.9774
 -20374623.34048 -15868032.70746  21254194.0784   21254189.2814
 -22375452.44948 -17423927.11547  20661521.1174   20661516.3204
  -4514711.12147  -3508471.75144  24304491.6484   24304488.1134
  -5402949.37547  -4187846.80343  24236139.6484   24236135.9614
 -26156844.56648 -20360294.10247  20319041.8054   20319036.0554
  -1203149.10247   -930029.51544  24874443.7584   24874439.6804
 09  4  4  2 20 30.0000000  0 11G24G16G10G 2G23G 7G25G 8G 4G13G29
   1970405.36346   1544119.59043  25134771.2274   25134767.9694
  -5198411.25847  -4033835.50245  22933159.9534   22933154.2344
  -5434751.12146  -4223616.70644  23588371.8594   23588367.0864
 -13698878.11748 -10663682.94545  22653386.0004   22653379.5784
 -19234048.92647 -14966525.24946  21929785.4534   21929778.7854
 -20447601.56648 -15924898.83746  21240306.6414   21240301.6804
 -22393690.43448 -17438138.52547  20658050.6954   20658045.5314
  -4635271.60547  -3602414.95944  24281549.7814   24281545.8244
  -5309743.52347  -4115218.88144  24253876.3204   24253872.7624
 -26133483.40248 -20342090.59047  20323486.9924   20323481.5084
  -1178921.07047   -911150.55143  24879054.1254   24879050.2854
 09  4  4  2 21  0.0000000  0 11G24G16G10G 2G23G 7G25G 8G 4G13G29
   1882543.29346   1475655.69443  25118051.1804   25118048.6644
  -5176321.77047  -4016622.92444  22937363.4144   22937357.5124
  -5542580.71546  -4307639.70144  23567852.0164   23567847.6954
 -13659957.35947 -10633355.10045  22660792.3524   22660786.2624
 -19158030.93447 -14907290.44546  21944251.3914   21944244.2424
 -20520106.66448 -15981396.29646  21226509.6724   21226504.4184
 -22411401.75848 -17451939.54447  20654680.3524   20654675.5004
  -4755697.82047  -3696253.51444  24258633.0554   24258630.1374
  -5216340.74247  -4042437.56143  24271649.8284   24271647.2304
 -26109639.77048 -20323511.13047  20328024.3284   20328018.9264
  -1154149.64846   -891848.12344  24883768.1804   24883764.4344
 09  4  4  2 21 30.0000000  0 11G24G16G10G 2G23G 7G25G 8G 4G13G29
   1795050.78546   1407479.77643  25101401.7194   25101398.9344
  -5153618.72747  -3998932.23844  22941683.3204   22941677.6374
  -5650131.09846  -4391445.16844  23547385.5864   23547381.7344
 -13620459.20347 -10602577.32845  22668308.4224   22668302.2274
 -19081701.67248 -14847813.11346  21958776.5944   21958769.5124
 -20592133.75848 -16037521.29246  21212803.3674   21212798.1294
 -22428584.11748 -17465328.39347  20651410.7114   20651405.9024
  -4875985.25447  -3789983.93944  24235743.0394   24235739.9614
  -5122741.50047  -3969503.08743  24289461.5634   24289458.2274
 -26085311.47348 -20304554.03247  20332653.9924   20332648.5944
  -1128832.77347   -872120.67044  24888585.8134   24888582.4774
 09  4  4  2 22  0.0000000  0 11G24G16G10G 2G23G 7G25G 8G 4G13G29
   1707929.97346   1339593.40643  25084824.2664   25084820.4024
  -5130303.94146  -3980764.86545  22946120.4454   22946114.2074
  -5757400.69546  -4475031.81344  23526973.1174   23526969.2234
 -13580386.00047 -10571351.47745  22675934.1254   22675928.6454
 -19005063.27747 -14788094.90145  21973360.2034   21973353.1214
 -20663681.98048 -16093273.13246  21199187.8284   21199182.9104
 -22445238.03948 -17478305.47247  20648241.6564   20648236.6844
  -4996132.23447  -3883604.88744  24212880.0944   24212876.7344
  -5028949.17647  -3896418.20843  24307309.5634   24307305.9614
 -26060499.53148 -20285220.04447  20337375.6644   20337370.0434
  -1102972.62946   -851969.94643  24893506.7584   24893503.3874
 09  4  4  2 22 30.0000000  0 11G24G16G10G 2G23G 7G25G 8G 4G13G29
   1621182.52346   1271998.10043  25068315.7664   25068313.0124
  -5106379.25846  -3962122.27145  22950673.0394   22950667.3714
  -5864387.30946  -4558397.99144  23506614.6644   23506609.9454
 -13539740.45347 -10539679.64845  22683669.0394   22683662.9144
 -18928117.96548 -14728137.53246  21988002.5164   21987995.4964
 -20734750.60948 -16148651.25846  21185663.9694   21185659.0664
 -22461364.65648 -17490871.65347  20645172.6644   20645167.8134
  -5116137.90647  -3977115.73044  24190043.7584   24190040.1564
  -4934967.17247  -3823185.54743  24325193.6724   24325190.2734
 -26035205.78548 -20265510.61847  20342188.7894   20342183.1024
  -1076571.17646   -831397.36644  24898531.2974   24898526.6684
 09  4  4  2 23  0.0000000  0 11G24G16G10G 2G23G 7G25G 8G 4G13G29
   1534813.00846   1204697.23643  25051880.3054   25051877.3634
  -5081843.60947  -3943003.56245  22955341.5084   22955336.2304
  -5971086.62146  -4641540.28244  23486309.9844   23486305.7854
 -13498522.39847 -10507561.69245  22691512.2584   22691506.4304
 -18850865.15648 -14667940.54146  22002703.3914   22002695.9384
 -20805336.19548 -16203652.98746  21172232.1804   21172227.3404
 -22476962.00848 -17503025.43147  20642204.4384   20642199.5864
  -5235998.19547  -4070513.26844  24167234.7344   24167231.8094
  -4840796.21147  -3749805.60043  24343113.8754   24343110.0514
 -26009428.44548 -20245424.37647  20347093.8364   20347088.5634
  -1049628.12146   -810402.80043  24903658.7274   24903654.2854
 09  4  4  2 23 30.0000000  0 11G24G16G10G 2G23G 7G25G 8G 4G13G29
   1448819.18046   1137689.11043  25035516.7814   25035512.9654
  -5056702.70347  -3923413.26345  22960126.0004   22960120.2424
  -6077500.61347  -4724460.23144  23466060.1564   23466055.9694
 -13456738.52747 -10475002.85445  22699463.6174   22699457.7274
 -18773310.59848 -14607508.41946  22017461.3674   22017454.2194
 -20875442.10948 -16258280.96046  21158891.3204   21158886.3054
 -22492035.03948 -17514770.63847  20639336.3054   20639331.3634
  -5355715.69547  -4163799.56044  24144453.0784   24144450.0864
  -4746444.08247  -3676284.48443  24361068.8674   24361065.4304
 -25983173.64148 -20224966.09447  20352089.9064   20352084.7974
  -1022148.77347   -788990.30043  24908887.4064   24908883.0944
 09  4  4  2 24  0.0000000  0 11G24G16G10G 2G23G 7G25G 8G 4G13G29
   1363203.28946   1070975.43743  25019224.1024   25019220.5234
  -5030958.18747  -3903352.61445  22965025.1804   22965019.6564
  -6183626.77747  -4807155.89644  23445865.1804   23445860.7544
 -13414391.27347 -10442005.01945  22707522.4064   22707515.8324
 -18695456.41848 -14546842.83646  22032276.6174   22032269.2274
 -20945067.20748 -16312534.26147  21145641.8594   21145636.9844
 -22506584.37548 -17526107.77647  20636567.7584   20636562.6214
  -5475288.61747  -4256973.16444  24121698.9774   24121695.7344
  -4651913.68747  -3602624.50244  24379057.2194   24379053.4224
 -25956441.87948 -20204136.14247  20357176.8524   20357171.4494
   -994134.62946   -767161.12643  24914218.0084   24914214.0004
 09  4  4  2 24 30.0000000  0 11G24G16G10G 2G23G 7G25G 8G 4G13G29
   1277971.96546   1004561.45543  25003004.6484   25003001.9614
  -5004607.08247  -3882819.27745  22970039.3834   22970034.2934
  -6289458.98047  -4889622.52344  23425725.7274   23425721.3244
 -13371478.49247 -10408566.50245  22715688.0164   22715682.3874
 -18617299.84047 -14485941.62046  22047149.9774   22047141.9224
 -21014205.68048 -16366408.36247  21132485.5944   21132480.4614
 -22520606.16448 -17537033.84447  20633899.2274   20633894.7974
  -5594711.23047  -4350029.66944  24098973.4144   24098970.4144
  -4557204.02347  -3528824.79143  24397079.7584   24397076.8754
 -25929230.16848 -20182932.21147  20362354.9454   20362349.6484
   -965583.73046   -744913.69144  24919650.9224   24919647.1334
 09  4  4  2 25  0.0000000  0 11G24G16G10G 2G23G 7G25G 8G 4G13G29
   1193128.43846    938449.65343  24986860.0234   24986856.9534
  -4977649.84847  -3861813.64145  22975170.0394   22975163.5274
  -6394993.60247  -4971857.26944  23405642.9924   23405638.5634
 -13328001.30947 -10374688.19745  22723961.8364   22723955.5554
 -18538841.13748 -14424804.98346  22062079.6884   22062072.1604
 -21082855.59848 -16419901.79047  21119421.8364   21119416.6454
 -22534099.78148 -17547548.34947  20631331.6484   20631326.6174
  -5713980.72747  -4442966.87844  24076277.3674   24076273.9804
  -4462316.69147  -3454886.66744  24415136.2114   24415133.0594
 -25901538.07448 -20161353.95347  20367624.7504   20367619.2424
   -936496.46946   -722248.27844  24925186.1724   24925182.3244
 09  4  4  2 25 30.0000000  0 11G24G16G10G 2G23G 7G25G 8G 4G13G29
   1108672.81346    872640.10443  24970788.6414   24970785.1414
  -4950089.82447  -3840338.30945  22980413.9144   22980408.0554
  -6500230.35247  -5053859.88845  23385617.3914   23385612.9344
 -13283964.06647 -10340373.48745  22732341.9384   22732335.9384
 -18460084.29347 -14363436.02945  22077066.8364   22077059.3984
 -21151017.62548 -16473015.03147  21106450.9384   21106445.9884
 -22547067.99248 -17557653.43547  20628863.9774   20628858.9804
  -5833097.62547  -4535785.16444  24053610.1954   24053606.8404
  -4367257.10247  -3380814.27044  24433225.7664   24433222.4494
 -25873368.87148 -20139403.93147  20372985.1484   20372979.8244
   -906876.57846   -699167.86044  24930822.4614   24930819.2664
 09  4  4  2 26  0.0000000  0 11G24G16G10G 2G23G 7G25G 8G 4G13G29
   1024609.34446    807136.12843  24954791.4614   24954788.8484
  -4921926.74647  -3818393.04744  22985772.8444   22985767.8674
  -6605164.98847  -5135627.10445  23365648.7194   23365644.2504
 -13239367.04347 -10305622.58245  22740828.4064   22740822.1954
 -18381028.78547 -14301834.33845  22092110.5784   22092102.8364
 -21218688.43448 -16525745.49746  21093573.6804   21093568.7424
 -22559509.19548 -17567347.87847  20626496.6334   20626491.8914
  -5952057.68047  -4628481.23944  24030972.9304   24030969.4964
  -4272026.30547  -3306608.52744  24451348.0704   24451344.1914
 -25844721.68748 -20117081.44247  20378436.4534   20378431.4264
   -876723.78946   -675672.19943  24936560.6564   24936556.3324
 09  4  4  2 26 30.0000000  0 11G24G16G10G 2G23G 7G25G 8G 4G13G29
    940939.62946    741939.01943  24938869.8204   24938866.3984
  -4893162.50047  -3795979.36045  22991247.1724   22991241.2074
  -6709796.10547  -5217157.82245  23345738.1024   23345733.7544
 -13194213.39547 -10270437.94345  22749420.7344   22749414.6294
 -18301677.06647 -14240001.84045  22107210.0164   22107203.2934
 -21285867.99648 -16578093.18547  21080789.6954   21080784.8484
 -22571424.78548 -17576632.74147  20624228.9144   20624223.8874
  -6070860.27347  -4721054.62244  24008364.9384   24008361.5824
  -4176628.19547  -3232272.39844  24469501.1644   24469498.1454
 -25815598.07048 -20094387.71447  20383978.7034   20383973.4184
   -846040.23046   -651762.89544  24942399.4694   24942395.7114
 09  4  4  2 27  0.0000000  0 11G24G16G10G 2G23G 7G25G 8G 4G13G29
    857664.34846    677049.19343  24923023.0004   24923019.8954
  -4863800.55947  -3773099.91145  22996833.9304   22996828.9224
  -6814122.69547  -5298451.24145  23325885.3834   23325881.5004
 -13148506.80948 -10234822.43845  22758118.9844   22758111.9534
 -18222032.35947 -14177941.04746  22122366.8364   22122358.8324
 -21352556.24248 -16630058.01847  21068099.4144   21068094.5234
 -22582816.66448 -17585509.51947  20622060.7734   20622056.0314
  -6189505.13747  -4813505.09744  23985788.0554   23985784.2464
  -4081067.04347  -3157809.21144  24487685.4924   24487683.2114
 -25786000.56248 -20071324.72947  20389610.6414   20389605.2734
   -814829.45346   -627442.83243  24948338.7814   24948334.6414
 09  4  4  2 27 30.0000000  0 11G24G16G10G 2G23G 7G25G 8G 4G13G29
    774786.99646    612469.50643  24907251.8834   24907248.9184
  -4833840.57047  -3749754.51145  23002535.4144   23002529.8134
  -6918140.62947  -5379504.13244  23306091.4534   23306087.3674
 -13102248.11747 -10198776.71945  22766921.1414   22766914.6914
 -18142095.14547 -14115652.31146  22137577.6954   22137570.5234
 -21418750.76248 -16681638.14346  21055503.3054   21055497.7584
 -22593684.11348 -17593977.66447  20619993.0784   20619988.4924
  -6307988.98046  -4905830.13744  23963241.1094   23963237.5474
  -3985344.69947  -3083220.42644  24505901.4304   24505898.2114
 -25755928.79348 -20047892.17547  20395333.0944   20395328.1414
   -783090.94546   -602711.55043  24954378.5164   24954374.1414
 09  4  4  2 28  0.0000000  0 11G24G16G10G 2G23G 7G25G 8G 4G13G29
    692310.93446    548202.43043  24891557.5394   24891553.9264
  -4803283.19547  -3725943.55345  23008349.5004   23008344.6724
  -7021847.00447  -5460314.23944  23286356.7814   23286352.5784
 -13055439.20747 -10162302.27145  22775828.6094   22775822.6374
 -18061865.44148 -14053135.67545  22152845.1644   22152838.5474
 -21484449.53548 -16732831.96846  21043000.9064   21042995.9024
 -22604026.71148 -17602036.81947  20618024.9144   20618020.1954
  -6426309.17647  -4998027.63844  23940725.5164   23940722.0704
  -3889463.21547  -3008507.63644  24524147.2034   24524144.0124
 -25725382.79348 -20024090.09947  20401145.7664   20401140.5784
   -750826.13345   -577570.17043  24960518.1884   24960514.5474
 09  4  4  2 28 30.0000000  0 11G24G16G10G 2G23G 7G25G 8G 4G13G29
    610238.60946    484250.00043  24875939.5164   24875936.1604
  -4772129.70347  -3701668.12444  23014278.4304   23014273.3874
  -7125239.24647  -5540879.58044  23266681.6484   23266677.7154
 -13008081.96147 -10125400.53845  22784840.2814   22784834.2274
 -17981344.89848 -13990392.40245  22168168.0704   22168160.6844
 -21549651.13748 -16783638.38346  21030593.4224   21030588.5594
 -22613844.88348 -17609687.33447  20616156.5394   20616151.8094
  -6544463.68447  -5090096.05744  23918241.7664   23918237.9224
  -3793425.43747  -2933673.07044  24542422.7894   24542419.4304
 -25694363.63348 -19999919.32647  20407048.7734   20407043.1254
   -718036.56646   -552019.86643  24966757.3984   24966754.3284
 09  4  4  2 29  0.0000000  0 11G24G16G10G 2G23G 7G25G 8G 4G13G29
    528573.03146    420614.53543  24860399.0394   24860395.8444
  -4740381.13347  -3676928.97645  23020319.5474   23020314.2774
  -7228314.25847  -5621197.75344  23247066.9844   23247062.7384
 -12960177.86347 -10088072.70345  22793956.3204   22793950.1524
 -17900534.78147 -13927423.49045  22183544.7974   22183538.7154
 -21614353.62948 -16834055.88947  21018281.4144   21018275.8794
 -22623138.45748 -17616929.07447  20614387.9844   20614382.9184
  -6662450.18447  -5182033.57844  23895788.9384   23895785.7274
  -3697233.32847  -2858718.19844  24560727.3134   24560724.0864
 -25662871.13348 -19975379.71647  20413041.7584   20413035.8164
   -684723.23846   -526061.43043  24973097.4534   24973093.1134
 09  4  4  2 29 30.0000000  0 11G24G16G10G 2G23G 7G25G 8G 4G13G29
    447316.55146    357297.86043  24844936.5394   24844932.9964
  -4708038.84447  -3651727.21344  23026474.5474   23026469.0514
  -7331068.86347  -5701266.22144  23227513.5394   23227509.3834
 -12911729.22347 -10050320.53445  22803175.5234   22803169.7854
 -17819436.16848 -13864229.78445  22198977.3834   22198971.1174
 -21678555.78148 -16884083.50747  21006063.5944   21006058.3054
 -22631907.78148 -17623762.30947  20612719.0784   20612714.4494
  -6780266.55947  -5273838.47644  23873369.9844   23873366.2854
  -3600890.12147  -2783645.62844  24579060.6024   24579057.8284
 -25630906.23848 -19950472.01346  20419124.2194   20419118.7974
   -650887.55546   -499695.96844  24979535.6174   24979531.8204
 09  4  4  2 30  0.0000000  0 11G24G16G10G 2G23G 7G25G 8G 4G13G29
    366472.01646    294302.12743  24829551.7814   24829548.7894
  -4675103.75847  -3626063.51744  23032741.7974   23032736.6334
  -7433500.48447  -5781083.02544  23208021.1174   23208017.1054
 -12862737.73847 -10012145.37045  22812498.4454   22812492.4304
 -17738050.03947 -13800812.03445  22214465.5704   22214458.1094
 -21742255.84848 -16933719.90847  20993942.1564   20993936.8054
 -22640152.77048 -17630186.96447  20611150.2894   20611145.4884
  -6897910.64847  -5365509.17044  23850982.9614   23850979.0864
  -3504397.91446  -2708456.97544  24597422.3524   24597419.6724
 -25598469.55948 -19925196.67247  20425296.8054   20425291.4494
   -616530.45346   -472924.20443  24986073.3204   24986070.0784
 09  4  4  2 30 30.0000000  0 11G24G16G10G 2G23G 7G25G 8G 4G13G29
    286040.06347    231627.90143  24814246.7974   24814243.3134
  -4641579.06647  -3599940.39144  23039122.1334   23039115.9964
  -7535608.21147  -5860647.45044  23188590.4924   23188586.4574
 -12813207.30547  -9973550.23745  22821923.6254   22821917.9534
 -17656379.51647 -13737172.66945  22230005.9774   22229999.3714
 -21805454.02348 -16982965.20546  20981915.7344   20981910.6054
 -22647875.66448 -17636204.80047  20609680.9774   20609675.7544
  -7015382.14547  -5457045.35944  23828628.7034   23828624.9614
  -3407761.02746  -2633155.57444  24615812.0704   24615809.2114
 -25565563.27348 -19899555.40647  20431558.4694   20431552.9844
   -581655.59045   -445749.02843  24992710.0704   24992706.5234
 09  4  4  2 31  0.0000000  0 11G24G16G10G 2G23G 7G25G 8G 4G13G29
    206022.53947    169276.62043  24799020.1024   24799016.3364
  -4607466.28547  -3573359.00044  23045613.2424   23045607.1994
  -7637390.05147  -5939957.94944  23169222.4224   23169218.2704
 -12763140.78147  -9934537.39645  22831451.3834   22831445.1604
 -17574426.55147 -13673313.22945  22245601.1254   22245594.4734
 -21868149.65648 -17031818.92147  20969985.3444   20969979.9454
 -22655077.32848 -17641816.47147  20608310.0944   20608305.1724
  -7132679.33247  -5548445.74844  23806307.3984   23806304.0904
  -3310983.00446  -2557744.18543  24634227.9924   24634225.7734
 -25532189.07048 -19873549.53847  20437909.1954   20437904.1374
   -546264.89846   -418171.83143  24999444.9144   24999441.1374
 09  4  4  2 31 30.0000000  0 11G24G16G10G 2G23G 7G25G 8G 4G13G29
    126426.43447    107253.68143  24783873.3984   24783869.4414
  -4572762.78547  -3546317.32145  23052216.9384   23052211.1684
  -7738839.19947  -6019009.19244  23149917.0944   23149913.0474
 -12712535.91047  -9895105.03945  22841080.7974   22841074.7194
 -17492188.25847 -13609231.44545  22261250.1724   22261244.2384
 -21930336.89848 -17080276.48947  20958151.2584   20958146.0594
 -22661753.80548 -17647018.91447  20607039.8364   20607034.5124
  -7249795.89147  -5639705.35644  23784020.7814   23784017.2544
  -3214062.19146  -2482221.54443  24652672.0634   24652669.1054
 -25498343.17648 -19847176.11247  20444350.1954   20444344.5004
   -510355.53946   -390190.58443  25006278.1644   25006274.2464
 09  4  4  2 32  0.0000000  0 11G24G16G10G 2G23G 7G25G 8G 4G13G29
     47250.02347     45557.85043  24768805.9694   24768803.1294
  -4537474.07847  -3518819.64044  23058932.4924   23058926.1134
  -7839956.92647  -6097802.20244  23130675.2814   23130670.7034
 -12661398.89547  -9855258.03645  22850812.2664   22850806.1564
 -17409669.87547 -13544931.43145  22276953.8134   22276946.5594
 -21992018.84048 -17128340.32347  20946413.4694   20946408.4104
 -22667909.77748 -17651815.76147  20605868.1804   20605863.3324
  -7366734.19147  -5730826.06044  23761768.1724   23761764.9304
  -3117005.58246  -2406593.07343  24671140.9924   24671138.5394
 -25464030.58648 -19820439.03847  20450879.6334   20450874.3834
   -473933.33646   -361809.67143  25013209.3834   25013205.6094
 09  4  4  2 32 30.0000000  0 11G24G16G10G 2G23G 7G25G 8G 4G13G29
    -31503.48047    -15808.55443  24753820.0634   24753816.2074
  -4501600.66847  -3490866.33744  23065758.9844   23065752.9964
  -7940739.45347  -6176334.01844  23111497.1954   23111492.7344
 -12609731.44947  -9814997.70945  22860643.7504   22860638.2274
 -17326871.79747 -13480413.44245  22292709.3204   22292702.8364
 -22053193.11748 -17176008.57147  20934772.6024   20934767.4144
 -22673544.39548 -17656206.37147  20604796.2114   20604790.8914
  -7483491.14147  -5821805.47944  23739550.3914   23739546.4924
  -3019814.84846  -2330860.07844  24689635.5234   24689633.2194
 -25429251.12548 -19793338.16047  20457497.9924   20457492.8364
   -436998.89146   -333029.60743  25020238.2274   25020233.9964
 09  4  4  2 33  0.0000000  0 11G24G16G10G 2G23G 7G25G 8G 4G13G29
   -109834.92247    -76845.98443  24738914.0864   24738910.5434
  -4465147.52046  -3462461.29244  23072695.2194   23072689.4454
  -8041187.55147  -6254605.23544  23092382.3914   23092378.2154
 -12557539.15247  -9774328.40645  22870575.8674   22870569.5274
 -17243799.16047 -13415681.54645  22308517.2734   22308511.3244
 -22113861.89848 -17223282.92347  20923227.6884   20923222.8404
 -22678661.87548 -17660194.01247  20603822.1954   20603817.3204
  -7600068.00047  -5912644.53244  23717366.3134   23717363.0234
  -2922496.16446  -2255027.39843  24708155.2344   24708152.3834
 -25394009.17648 -19765876.89747  20464204.3674   20464198.9734
   -399557.43746   -303854.43743  25027362.1644   25027359.3204
 09  4  4  2 33 30.0000000  0 11G24G16G10G 2G23G 7G25G 8G 4G13G29
   -187737.99647   -137549.65743  24724089.7424   24724086.0434
  -4428112.26646  -3433602.66844  23079743.2274   23079737.5744
  -8141294.86347  -6332610.91344  23073332.5554   23073328.0864
 -12504820.23447  -9733248.74245  22880608.1484   22880601.7344
 -17160449.08647 -13350733.46145  22324378.1174   22324371.7894
 -22174019.77748 -17270159.16647  20911779.9694   20911774.9614
 -22683258.56648 -17663775.84047  20602947.7734   20602942.8524
  -7716458.93747  -6003338.70445  23695217.6024   23695214.2074
  -2825048.14546  -2179093.95843  24726699.2664   24726696.0784
 -25358301.33648 -19738052.61147  20470999.1804   20470993.8444
   -361606.41446   -274282.21943  25034583.7734   25034580.5314
 09  4  4  2 34  0.0000000  0 11G24G16G10G 2G23G 7G25G 8G 4G13G29
   -265211.16847   -197918.32443  24709346.9534   24709343.7154
  -4390497.03547  -3404292.10844  23086900.2584   23086895.6764
  -8241059.86347  -6410349.86844  23054348.4614   23054343.2774
 -12451577.76647  -9691761.12245  22890739.8834   22890733.5314
 -17076823.81648 -13285570.93345  22340291.8834   22340285.4184
 -22233666.44948 -17316637.08047  20900429.4144   20900424.4144
 -22687335.78948 -17666952.89147  20602171.6804   20602166.4844
  -7832662.86347  -6093887.15344  23673104.9924   23673101.6174
  -2727474.53146  -2103062.66643  24745266.0394   24745263.6524
 -25322129.43448 -19709866.71247  20477882.6334   20477876.9414
   -323148.59046   -244315.11043  25041902.5164   25041898.8634
 09  4  4  2 34 30.0000000  0 11G24G16G10G 2G23G 7G25G 8G 4G13G29
   -342253.77347   -257951.57043  24694686.1414   24694682.6684
  -4352304.96547  -3374532.03544  23094168.4694   23094162.7384
  -8340481.16447  -6487820.97644  23035429.1414   23035424.1454
 -12397815.69947  -9649868.63045  22900970.3524   22900964.2934
 -16992926.62548 -13220196.48845  22356257.4384   22356250.8754
 -22292802.33248 -17362716.97047  20889175.9924   20889171.1644
 -22690895.82848 -17669726.95247  20601494.2814   20601489.3634
  -7948679.30547  -6184289.53245  23651027.3674   23651024.7114
  -2629779.73446  -2026936.85543  24763857.8444   24763854.6294
 -25285496.14848 -19681321.29547  20484853.5704   20484848.3754
   -284187.11746   -213955.53243  25049316.3284   25049313.4064
 09  4  4  2 35  0.0000000  0 11G24G16G10G 2G23G 7G25G 8G 4G13G29
   -418862.21547   -317646.37443  24680107.7584   24680104.8634
  -4313536.37147  -3344322.74544  23101546.1414   23101540.4414
  -8439554.83647  -6565021.22745  23016576.0234   23016571.3484
 -12343535.23047  -9607572.18345  22911299.4844   22911293.4844
 -16908757.46948 -13154610.14045  22372274.8284   22372267.4804
 -22351425.12948 -17408397.04747  20878020.7114   20878015.7854
 -22693937.89148 -17672097.38247  20600915.0704   20600910.4224
  -8064505.14547  -6274543.38144  23628987.0634   23628983.3094
  -2531965.20346  -1950717.85243  24782470.9144   24782467.7234
 -25248400.97348 -19652415.96947  20491912.5944   20491907.3404
   -244722.32046   -183203.75843  25056826.8524   25056823.0434
 09  4  4  2 35 30.0000000  0 11G24G16G10G 2G23G 7G25G 8G 4G13G29
   -495032.27047   -376999.64643  24665613.5474   24665609.1844
  -4274191.57047  -3313664.47244  23109033.2344   23109027.5004
  -8538276.34047  -6641947.05345  22997789.3364   22997785.1054
 -12288736.76247  -9564872.09545  22921727.3134   22921721.3714
 -16824315.84048 -13088811.48045  22388342.4304   22388335.6884
 -22409531.78948 -17453674.94747  20866963.3364   20866958.2734
 -22696460.61748 -17674063.13747  20600435.2814   20600429.9804
  -8180136.72747  -6364645.84145  23606982.3914   23606979.1914
  -2434031.86746  -1874406.18043  24801107.2344   24801104.6684
 -25210842.87148 -19623149.91247  20499059.4844   20499054.1024
   -204754.20746   -152059.78643  25064432.5394   25064428.1454
 09  4  4  2 36  0.0000000  0 11G24G16G10G 2G23G 7G25G 8G 4G13G29
   -570763.37947   -436010.85943  24651202.1334   24651198.5594
  -4234273.04747  -3282559.13745  23116629.6564   23116623.6844
  -8636645.07447  -6718597.99045  22979070.5234   22979066.0394
 -12233424.61347  -9521771.74145  22932253.0864   22932247.0744
 -16739604.94147 -13022802.99045  22404462.3524   22404455.8134
 -22467122.82048 -17498551.06147  20856004.3444   20855998.9224
 -22698466.32448 -17675626.03147  20600053.3444   20600048.6844
  -8295573.69947  -6454596.67045  23585015.9694   23585012.1994
  -2335984.12146  -1798005.41343  24819765.2344   24819762.1954
 -25172824.57048 -19593525.27147  20506293.9774   20506288.8014
   -164286.48846   -120526.51143  25072132.6564   25072129.4574
 09  4  4  2 36 30.0000000  0 11G24G16G10G 2G23G 7G25G 8G 4G13G29
   -646055.26647   -494679.88444  24636874.6804   24636871.1094
  -4193784.82047  -3251009.89644  23124333.5944   23124328.1564
  -8734660.37147  -6794973.52045  22960418.9614   22960414.7624
 -12177603.02047  -9478274.41445  22942875.1884   22942869.4924
 -16654628.21148 -12956587.37045  22420633.8754   22420626.6024
 -22524198.62548 -17543025.68947  20845143.1024   20845138.1214
 -22699957.49648 -17676787.96947  20599769.6414   20599764.5984
  -8410815.89147  -6544395.70745  23563085.7584   23563082.5084
  -2237826.66846  -1721519.14743  24838443.8134   24838440.7974
 -25134348.93748 -19563544.25047  20513615.8444   20513610.4264
   -123322.69146    -88606.66644  25079928.1094   25079924.2464
 09  4  4  2 37  0.0000000  0 11G24G16G10G 2G23G 7G25G 8G 4G13G29
   -720902.80947   -553002.56843  24622631.4454   24622628.0664
  -4152725.82447  -3219015.85544  23132147.7584   23132141.4964
  -8832316.85547  -6871069.45545  22941835.4614   22941831.2344
 -12121271.69947  -9434379.89345  22953594.9454   22953588.7624
 -16569384.11347 -12890163.41345  22436854.5474   22436847.5864
 -22580755.65648 -17587096.08447  20834380.4694   20834375.4144
 -22700931.94548 -17677547.28647  20599584.1564   20599579.5004
  -8525858.53947  -6634039.26545  23541193.4534   23541190.0124
  -2139559.45346  -1644947.31043  24857143.7664   24857141.1454
 -25095414.14848 -19533205.45647  20521025.2344   20521019.9844
    -81862.00446    -56299.67444  25087817.8594   25087814.8874
 09  4  4  2 37 30.0000000  0 11G24G16G10G 2G23G 7G25G 8G 4G13G29
   -795304.93047   -610978.29143  24608473.1954   24608469.8284
  -4111098.76647  -3186579.18844  23140069.5164   23140063.0044
  -8929612.98447  -6946884.59745  22923320.6414   22923316.2504
 -12064434.23447  -9390090.98345  22964410.5234   22964404.6764
 -16483875.39847 -12823533.26145  22453127.2114   22453119.3484
 -22636794.14848 -17630762.42747  20823716.8204   20823711.7934
 -22701391.59848 -17677905.44947  20599496.9924   20599492.3324
  -8640700.97347  -6723526.82945  23519340.1644   23519336.4884
  -2041186.73846  -1568293.31543  24875862.9844   24875860.5944
 -25056022.41048 -19502510.59846  20528520.8524   20528515.5234
    -39907.41046    -23607.82944  25095801.9534   25095798.3874
 09  4  4  2 38  0.0000000  0 11G24G16G10G 2G23G 7G25G 8G 4G13G29
   -869261.42247   -668606.65743  24594399.7664   24594396.5554
  -4068907.78947  -3153703.10145  23148097.3284   23148091.4494
  -9026548.71147  -7022418.88845  22904874.1414   22904869.5554
 -12007095.57447  -9345411.52945  22975322.1334   22975315.6724
 -16398105.66447 -12756699.69945  22469448.0394   22469441.0354
 -22692315.10248 -17674025.48547  20813151.6564   20813146.7034
 -22701339.32048 -17677864.71147  20599506.6724   20599501.7114
  -8755343.56247  -6812858.67245  23497524.3204   23497520.8134
  -1942713.23046  -1491560.76643  24894602.0234   24894599.3794
 -25016176.86748 -19471462.12647  20536103.3594   20536097.9184
      2537.17246      9465.88943  25103878.9534   25103874.8524
 09  4  4  2 38 30.0000000  0 11G24G16G10G 2G23G 7G25G 8G 4G13G29
   -942767.72747   -725884.29543  24580411.8674   24580408.3364
  -4026151.74247  -3120386.72244  23156233.0554   23156228.0984
  -9123118.42247  -7097667.99445  22886497.4384   22886492.9344
 -11949255.59847  -9300341.44345  22986328.3284   22986322.5434
 -16312073.79748 -12689661.89045  22485819.5394   22485812.7034
 -22747314.85248 -17716882.41847  20802685.1254   20802680.2894
 -22700773.22348 -17677423.59247  20599614.5234   20599609.4104
  -8869782.00847  -6902031.42545  23475747.1254   23475743.5864
  -1844139.15246  -1414749.76743  24913359.7974   24913357.2974
 -24975875.75048 -19440058.65847  20543772.4534   20543766.8054
     45472.27347     42921.77544  25112049.1334   25112044.8954
 09  4  4  2 39  0.0000000  0 11G24G16G10G 2G23G 7G25G 8G 4G13G29
  -1015823.57847   -782810.94943  24566509.8444   24566506.5394
  -3982834.73447  -3086633.21244  23164477.0164   23164470.7814
  -9219322.31247  -7172632.03345  22868190.3674   22868186.2814
 -11890918.72747  -9254884.18345  22997430.0234   22997423.5944
 -16225783.32848 -12622422.58345  22502240.1564   22502232.8204
 -22801794.65248 -17759334.18847  20792318.0944   20792313.0704
 -22699695.96148 -17676584.16347  20599819.5704   20599814.5944
  -8984016.06247  -6991044.91545  23454009.2194   23454005.6294
  -1745469.48046  -1337864.40943  24932135.9304   24932133.6604
 -24935122.10248 -19408302.57346  20551527.6414   20551522.0864
     88893.77747     76756.69544  25120312.1644   25120308.0554
 09  4  4  2 39 30.0000000  0 11G24G16G10G 2G23G 7G25G 8G 4G13G29
  -1088426.43047   -839384.53544  24552694.1414   24552690.3244
  -3938957.85247  -3052443.44344  23172825.6024   23172820.2544
  -9315156.97747  -7247308.37645  22849953.5634   22849949.0084
 -11832086.96147  -9209041.25445  23008625.0164   23008619.0554
 -16139235.20748 -12554982.50745  22518710.8834   22518702.3404
 -22855752.65648 -17801379.37547  20782050.3444   20782045.2384
 -22698107.68748 -17675346.53947  20600121.8834   20600116.6484
  -9098043.55947  -7079897.45345  23432310.5864   23432306.8834
  -1646706.32046  -1260906.14843  24950930.6724   24950928.1804
 -24893916.65648 -19376194.43347  20559368.7274   20559363.5664
    132800.29747    110969.58144  25128667.1804   25128662.9964
 09  4  4  2 40  0.0000000  0 11G24G16G10G 2G23G 7G25G 8G 4G13G29
  -1160571.75847   -895601.64543  24538965.2034   24538961.5234
  -3894520.83647  -3017817.22944  23181282.0554   23181277.0514
  -9410617.80947  -7321693.41645  22831787.6954   22831783.7074
 -11772760.81247  -9162813.10645  23019914.4924   23019908.5704
 -16052428.77748 -12487341.13845  22535227.9534   22535221.5124
 -22909185.71148 -17843015.50147  20771882.4224   20771877.2814
 -22696006.89148 -17673709.54947  20600521.7894   20600516.6994
  -9211860.38747  -7168585.85845  23410651.9454   23410648.1484
  -1547850.08646  -1183875.36143  24969742.2424   24969739.3204
 -24852258.12948 -19343733.25247  20567296.1564   20567290.5634
    177192.44946    145560.81943  25137114.4144   25137110.8714
 09  4  4  2 40 30.0000000  0 11G24G16G10G 2G23G 7G25G 8G 4G13G29
  -1232258.55946   -951461.48643  24525323.4614   24525320.4534
  -3849526.66847  -2982756.83544  23189844.2194   23189838.7974
  -9505703.21947  -7395785.90445  22813694.1414   22813689.6024
 -11712943.93747  -9116202.57945  23031297.1724   23031291.1804
 -15965366.44948 -12419500.39245  22551796.3914   22551788.7344
 -22962093.88348 -17884242.63947  20761814.2344   20761809.0704
 -22693395.54748 -17671674.73947  20601018.6954   20601013.3444
  -9325465.85947  -7257109.55045  23389033.4614   23389029.5274
  -1448905.01246  -1106775.33943  24988570.9534   24988568.3284
 -24810148.57448 -19310920.61447  20575309.3444   20575303.9804
    222066.89146    180527.89644  25145653.6484   25145650.2424
 09  4  4  2 41  0.0000000  0 11G24G16G10G 2G23G 7G25G 8G 4G13G29
  -1303488.91846  -1006965.59943  24511768.7734   24511765.6884
  -3803981.49647  -2947267.09144  23198510.9304   23198505.4534
  -9600415.03547  -7469587.28245  22795670.9064   22795666.9104
 -11652643.21147  -9069215.02145  23042772.2034   23042766.2464
 -15878054.22348 -12351464.90345  22568410.5784   22568403.7704
 -23014480.79348 -17925063.58747  20751845.4144   20751840.0704
 -22690278.66848 -17669245.99547  20601611.6334   20601606.5274
  -9438862.12547  -7345470.23745  23367454.9144   23367451.0084
  -1349878.07846  -1029611.60543  25007415.2504   25007412.9224
 -24767593.51648 -19277760.83147  20583407.2274   20583401.9454
    267417.39546    215865.94444  25154284.1954   25154280.4064
 09  4  4  2 41 30.0000000  0 11G24G16G10G 2G23G 7G25G 8G 4G13G29
  -1374261.03146  -1062112.69843  24498301.1094   24498298.1994
  -3757887.19547  -2911349.46544  23207282.1174   23207277.4024
  -9694751.15247  -7543095.91745  22777719.3204   22777714.7704
 -11591861.49247  -9021852.65945  23054338.7664   23054332.4964
 -15790493.54348 -12283235.81645  22585073.1724   22585065.5904
 -23066345.43448 -17965477.57347  20741975.7114   20741970.6684
 -22686657.21548 -17666424.08047  20602300.6564   20602295.5784
  -9552047.48047  -7433666.57445  23345916.2504   23345912.4494
  -1250772.16446   -952386.18243  25026273.1644   25026271.7584
 -24724594.05948 -19244254.75446  20591589.6174   20591584.4734
    313241.44947    251572.99143  25163004.0554   25163000.4534
 09  4  4  2 42  0.0000000  0 11G24G16G10G 2G23G 7G25G 8G 4G13G29
  -1444569.57046  -1116898.53943  24484921.8204   24484918.9844
  -3711243.15647  -2875003.48044  23216158.8284   23216153.2624
  -9788705.46147  -7616307.04145  22759840.6564   22759835.8364
 -11530598.16047  -8974115.03445  23065996.8834   23065990.7424
 -15702682.79347 -12214811.88545  22601782.3284   22601775.0634
 -23117683.57048 -18005481.29747  20732206.2424   20732201.1604
 -22682528.73848 -17663207.08147  20603086.4774   20603081.4184
  -9665016.82847  -7521694.58745  23324418.6644   23324415.0204
  -1151586.90246   -875099.05543  25045148.3364   25045146.0944
 -24681148.11748 -19210400.78046  20599857.3204   20599851.8244
    359540.90247    287650.47044  25171813.8984   25171811.0514
 09  4  4  2 42 30.0000000  0 11G24G16G10G 2G23G 7G25G 8G 4G13G29
  -1514410.41446  -1171319.93743  24471632.0944   24471628.1564
  -3664048.57047  -2838228.49644  23225139.2344   23225134.3284
  -9882273.68447  -7689217.33845  22742034.9454   22742030.3404
 -11468854.09847  -8926002.78445  23077746.0474   23077740.2274
 -15614621.30147 -12146192.54945  22618539.4844   22618533.3244
 -23168492.83648 -18045072.91047  20722537.3914   20722532.3794
 -22677892.27048 -17659594.24547  20603968.8524   20603963.7154
  -9777766.54347  -7609551.47545  23302963.4924   23302959.4454
  -1052323.23946   -797750.85243  25064038.1804   25064035.4384
 -24637254.85948 -19176198.23847  20608209.8204   20608204.7074
    406315.18046    324097.96143  25180715.5394   25180711.4064
 09  4  4  2 43  0.0000000  0 11G24G16G10G 2G23G 7G25G 8G 4G13G29
  -1583782.57046  -1225376.09143  24458430.6334   24458427.3754
  -3616306.44147  -2801026.85744  23234224.5704   23234219.3164
  -9975454.29747  -7761825.58445  22724303.2974   22724298.2234
 -11406632.73447  -8877518.62745  23089586.6024   23089580.5634
 -15526311.79747 -12077379.97045  22635344.4224   22635338.0234
 -23218773.01648 -18084252.25547  20712969.8524   20712964.6844
 -22672749.39148 -17655586.81247  20604947.3594   20604942.2344
  -9890295.67247  -7697236.45445  23281549.4224   23281545.7774
   -952984.55146   -720344.09943  25082941.3754   25082939.1884
 -24592916.13348 -19141648.58046  20616647.2114   20616642.3324
    453561.32446    360913.13844  25189705.9774   25189702.1134
 09  4  4  2 43 30.0000000  0 11G24G16G10G 2G23G 7G25G 8G 4G13G29
  -1652684.76646  -1279066.07443  24445318.4224   24445315.8364
  -3568019.49247  -2763400.64044  23243413.2734   23243407.9494
 -10068245.18747  -7834130.16445  22706645.8594   22706640.8984
 -11343937.52347  -8828665.25245  23101517.0164   23101511.2304
 -15437756.20747 -12008375.63345  22652196.5634   22652189.8874
 -23268524.02348 -18123019.26247  20703502.2274   20703497.2854
 -22667101.61748 -17651185.93347  20606021.8594   20606016.7894
 -10002602.94947  -7784748.57045  23260178.3284   23260174.7544
   -853574.55946   -642881.81943  25101858.7194   25101856.2624
 -24548133.74648 -19106753.22747  20625168.8984   20625163.6414
    501276.71547    398093.92843  25198785.5474   25198782.2034
 09  4  4  2 44  0.0000000  0 11G24G16G10G 2G23G 7G25G 8G 4G13G29
  -1721116.54746  -1332389.54943  24432296.5944   24432293.3404
  -3519191.37147  -2725352.79144  23252705.1724   23252699.5044
 -10160645.98847  -7906130.75345  22689062.5164   22689057.8524
 -11280772.76647  -8779445.98345  23113536.7814   23113530.8634
 -15348957.62547 -11939181.94945  22669093.9064   22669087.4734
 -23317746.40648 -18161374.34547  20694135.6484   20694130.5554
 -22660951.39848 -17646393.56247  20607192.1024   20607187.6134
 -10114688.10547  -7872087.60745  23238849.1024   23238845.6254
   -754097.61346   -565367.39343  25120788.1414   25120786.2704
 -24502910.44948 -19071514.29546  20633774.6954   20633769.5864
    549457.52346    435637.38744  25207954.1564   25207950.3364
 09  4  4  2 44 30.0000000  0 11G24G16G10G 2G23G 7G25G 8G 4G13G29
  -1789072.19146  -1385341.93243  24419364.9694   24419361.3874
  -3469820.27747  -2686881.81644  23262100.4534   23262094.5664
 -10252650.60947  -7977822.64445  22671554.8524   22671550.0084
 -11217137.81647  -8729860.32845  23125645.9774   23125640.2934
 -15259914.44147 -11869797.67245  22686037.8444   22686032.4304
 -23366435.83248 -18199314.13847  20684870.5554   20684865.0704
 -22654296.29748 -17641207.76747  20608458.9844   20608453.8914
 -10226546.00447  -7959249.56645  23217563.0314   23217559.6454
   -654552.96546   -487800.23243  25139731.3284   25139728.5394
 -24457243.91048 -19035929.97647  20642464.8444   20642459.2504
    598105.07847    473544.53843  25217212.2894   25217207.8914
 09  4  4  2 45  0.0000000  0 11G24G16G10G 2G23G 7G25G 8G 4G13G29
  -1856552.05546  -1437923.57043  24406524.1174   24406520.8914
  -3419911.28147  -2647991.69044  23271596.9064   23271591.6484
 -10344258.90247  -8049205.71945  22654122.1724   22654117.5784
 -11153037.86747  -8679912.34345  23137844.3674   23137837.9734
 -15170630.30547 -11800225.63745  22703029.0784   22703022.1214
 -23414594.31648 -18236840.21347  20675705.7894   20675700.8284
 -22647139.55148 -17635631.07747  20609820.8204   20609815.7074
 -10338177.07847  -8046234.79045  23196320.6644   23196316.8524
   -554945.91046   -410184.38143  25158686.1954   25158683.2034
 -24411137.85548 -19000003.19147  20651238.5784   20651233.2384
    647215.03947    511812.06943  25226557.4304   25226553.1054
 09  4  4  2 45 30.0000000  0 11G24G16G10G 2G23G 7G25G 8G 4G13G29
  -1923554.77746  -1490133.48443  24393773.5704   24393770.5044
  -3369466.52047  -2608684.11344  23281196.4614   23281191.0474
 -10435468.78547  -8120278.30745  22636765.6724   22636760.8324
 -11088476.29747  -8629604.64445  23150129.8364   23150123.5594
 -15081107.41447 -11730467.56245  22720065.1414   22720058.0004
 -23462221.18048 -18273952.03547  20666643.0314   20666637.7074
 -22639482.57848 -17629664.60347  20611277.6094   20611272.5234
 -10449579.96947  -8133042.18945  23175121.1804   23175117.1954
   -455279.71946   -332522.52143  25177651.4534   25177649.3484
 -24364593.89848 -18963735.17747  20660095.6884   20660090.3754
    696784.36746    550437.45343  25235990.1644   25235986.3444
 09  4  4  2 46  0.0000000  0 11G24G16G10G 2G23G 7G25G 8G 4G13G29
  -1990079.16446  -1541970.63343  24381115.0084   24381111.4924
  -3318488.70747  -2568961.13244  23290897.4454   23290892.0784
 -10526278.78547  -8191039.33045  22619485.0004   22619480.4104
 -11023455.99247  -8578939.51345  23162503.0634   23162496.8094
 -14991347.73847 -11660524.97545  22737145.8674   22737138.6414
 -23509316.50848 -18310649.67947  20657681.0314   20657675.6524
 -22631326.77748 -17623309.42847  20612829.7344   20612824.9844
 -10560753.50447  -8219670.87045  23153965.8204   23153961.8324
   -355557.69546   -254817.13843  25196627.9694   25196625.7384
 -24317613.51248 -18927127.07847  20669035.6804   20669030.0824
    746810.37946    589418.78143  25245508.9454   25245505.7814
 09  4  4  2 46 30.0000000  0 11G24G16G10G 2G23G 7G25G 8G 4G13G29
  -2056123.42646  -1593433.66843  24368547.1564   24368543.6294
  -3266980.09047  -2528824.56544  23300699.6094   23300693.4884
 -10616686.32047  -8261486.74345  22602280.6094   22602276.5274
 -10957980.49647  -8527919.65945  23174962.0944   23174956.1134
 -14901352.95747 -11590399.21945  22754269.9304   22754263.4574
 -23555879.64848 -18346932.63747  20648820.5164   20648815.0634
 -22622673.38748 -17616566.52147  20614476.3984   20614471.5164
 -10671696.06247  -8306119.59345  23132853.9064   23132850.0664
   -255782.93046   -177070.62543  25215615.1804   25215612.3014
 -24270198.15648 -18890180.06246  20678058.5474   20678053.0664
    797290.75446    628754.07743  25255115.9694   25255112.2854
 09  4  4  2 47  0.0000000  0 11G24G16G10G 2G23G 7G25G 8G 4G13G29
  -2121684.27046  -1644520.04443  24356070.9144   24356067.6764
  -3214941.48447  -2488275.01944  23310602.3134   23310596.5394
 -10706687.86747  -8331617.77545  22585153.9844   22585149.1884
 -10892050.91447  -8476545.98545  23187508.4144   23187502.1884
 -14811123.52748 -11520090.60345  22771440.8204   22771434.2584
 -23601908.55948 -18382799.31547  20640061.3134   20640056.5044
 -22613521.89548 -17609435.48247  20616217.6024   20616212.6524
 -10782404.37947  -8392385.77145  23111786.4454   23111783.2194
   -155956.52346    -99283.85043  25234611.2734   25234608.5864
 -24222347.74248 -18852894.02647  20687164.0084   20687158.6454
    848224.87546    668443.02543  25264807.9614   25264804.0664
 09  4  4  2 47 30.0000000  0 11G24G16G10G 2G23G 7G25G 8G 4G13G29
  -2186758.51646  -1695227.18543  24343687.4534   24343684.3054
  -3162373.89547  -2447313.27244  23320605.2194   23320599.7074
 -10796279.63347  -8401429.52545  22568105.1644   22568100.5824
 -10825669.26647  -8424820.08145  23200140.3134   23200134.5124
 -14720659.43748 -11449599.10045  22788655.7504   22788649.1604
 -23647401.44548 -18418248.30547  20631404.4224   20631398.8754
 -22603872.31248 -17601916.33147  20618054.1334   20618049.3554
 -10892875.76647  -8478467.34145  23090764.5314   23090760.9304
    -56080.49646    -21458.46843  25253617.4144   25253614.4924
 -24174062.27048 -18815268.98946  20696352.5864   20696347.0984
    899611.35946    708484.45643  25274586.5394   25274582.4844
 09  4  4  2 48  0.0000000  0 11G24G16G10G 2G23G 7G25G 8G 4G13G29
  -2251346.12547  -1745555.17943  24331397.2584   24331393.6994
  -3109281.25447  -2405942.39344  23330708.3444   23330702.5434
 -10885460.51247  -8470921.08945  22551134.6414   22551129.9064
 -10758840.08647  -8372745.41245  23212857.7114   23212851.0744
 -14629963.95747 -11378927.32945  22805914.6884   22805907.5944
 -23692359.23848 -18453280.34347  20622849.2814   20622843.7074
 -22593727.26248 -17594011.08647  20619984.6954   20619979.6214
 -11003110.08647  -8564364.18845  23069787.3594   23069783.7894
     43840.85546     56402.29843  25272631.8284   25272629.4224
 -24125344.62548 -18777307.19047  20705623.3834   20705617.7814
    951446.06646    748875.12543  25284450.3594   25284446.5474
 09  4  4  2 48 30.0000000  0 11G24G16G10G 2G23G 7G25G 8G 4G13G29
  -2315441.62146  -1795499.68243  24319200.3914   24319196.9734
  -3055662.10247  -2364161.25544  23340911.4694   23340906.3794
 -10974225.26647  -8540088.39445  22534243.1414   22534238.6254
 -10691562.40647  -8320321.26245  23225660.4064   23225654.0704
 -14539035.38747 -11308073.90845  22823217.0944   22823210.9264
 -23736777.82048 -18487892.21447  20614396.6094   20614391.0164
 -22583084.18748 -17585717.78247  20622009.7814   20622005.2504
 -11113101.78547  -8650071.98145  23048856.9844   23048853.1954
    143808.19946    134298.86743  25291655.1804   25291652.2894
 -24076192.59448 -18739006.90546  20714976.6414   20714971.3484
   1003730.66446    789616.29543  25294399.8364   25294395.9304
 09  4  4  2 49  0.0000000  0 11G24G16G10G 2G23G 7G25G 8G 4G13G29
  -2379046.75046  -1845062.12343  24307096.3444   24307093.3524
  -3001522.23047  -2321974.36344  23351214.2194   23351208.7344
 -11062575.43047  -8608932.64745  22517430.7034   22517426.4844
 -10623842.85247  -8267552.79145  23238547.1564   23238540.6804
 -14447879.02047 -11237042.97745  22840564.2974   22840557.6844
 -23780660.16848 -18522086.23447  20606046.2814   20606040.8484
 -22571947.81248 -17577040.08647  20624129.4924   20624124.2544
 -11222852.90647  -8735592.30345  23027972.4304   23027968.5004
    243815.02046    212226.18943  25310685.8834   25310682.7584
 -24026611.21948 -18700372.05546  20724411.4844   20724406.4144
   1056458.96946    830703.29043  25304433.5474   25304429.7624
 09  4  4  2 49 30.0000000  0 11G24G16G10G 2G23G 7G25G 8G 4G13G29
  -2442166.11747  -1894246.02144  24295085.2814   24295081.9884
  -2946870.18747  -2279388.35344  23361614.0474   23361608.8054
 -11150514.43047  -8677456.51045  22500696.6724   22500692.0354
 -10555690.93747  -8214447.44044  23251515.8984   23251509.5904
 -14356502.42247 -11165840.46445  22857952.5944   22857945.9964
 -23824012.05948 -18555866.92447  20597796.1724   20597791.5594
 -22560325.56648 -17567983.79347  20626340.6884   20626335.5234
 -11332368.11747  -8820928.79345  23007132.1564   23007128.5234
    343852.33246    290177.23143  25329721.8364   25329719.6724
 -23976607.64148 -18661408.23046  20733927.0634   20733921.6414
   1109622.34046    872129.32143  25314550.2194   25314546.4384
 09  4  4  2 50  0.0000000  0 11G24G16G10G 2G23G 7G25G 8G 4G13G29
  -2504807.25447  -1943057.28544  24283165.6954   24283161.7234
  -2891718.05147  -2236412.68444  23372109.3364   23372103.7154
 -11238049.28147  -8745665.46845  22484038.9924   22484034.6954
 -10487118.64847  -8161014.51745  23264564.5474   23264558.4614
 -14264916.75847 -11094475.03945  22875380.8444   22875374.0274
 -23866842.22748 -18589241.06747  20589646.1804   20589641.0474
 -22548227.72348 -17558556.89547  20628643.0864   20628637.8594
 -11441654.82047  -8906087.24045  22986335.5784   22986331.6214
    443907.98846    368142.63643  25348761.5314   25348759.4694
 -23926192.67248 -18622123.85146  20743520.5084   20743515.2464
   1163209.16846    913885.29343  25324747.1414   25324744.4264
 09  4  4  2 50 30.0000000  0 11G24G16G10G 2G23G 7G25G 8G 4G13G29
  -2566966.68447  -1991493.14343  24271336.8134   24271333.1414
  -2836065.80547  -2193047.30044  23382699.9304   23382694.2584
 -11325176.07447  -8813556.44045  22467459.3594   22467455.0004
 -10418127.61747  -8107255.28344  23277693.1724   23277687.3244
 -14173121.73447 -11022946.50445  22892849.1414   22892841.6254
 -23909148.47348 -18622206.96247  20581595.5234   20581590.2384
 -22535653.96548 -17548759.16947  20631035.8834   20631030.5824
 -11550709.80947  -8991065.12845  22965582.9694   22965579.2974
    543980.65646    446121.22343  25367805.2894   25367802.9064
 -23875366.06248 -18582518.69546  20753192.5004   20753187.1054
   1217218.60946    955970.52743  25335025.1334   25335021.4884
 09  4  4  2 51  0.0000000  0 11G24G16G10G 2G23G 7G25G 8G 4G13G29
  -2628639.46547  -2039549.88044  24259600.6414   24259597.4344
  -2779912.58247  -2149291.53644  23393385.1724   23393379.9224
 -11411889.45347  -8881125.29645  22450958.4774   22450953.7814
 -10348717.57447  -8053169.57544  23290901.5704   23290895.3714
 -14081116.15647 -10951253.85545  22910356.3444   22910349.9654
 -23950927.16048 -18654761.76947  20573645.2114   20573640.0274
 -22522602.11748 -17538588.89247  20633519.3444   20633514.1604
 -11659527.98847  -9075858.48045  22944875.6954   22944872.0984
    644070.75046    524113.41143  25386852.0944   25386849.2114
 -23824125.81648 -18542591.22346  20762943.2664   20762937.6454
   1271651.68046    998385.93143  25345383.8364   25345379.9144
 09  4  4  2 51 30.0000000  0 11G24G16G10G 2G23G 7G25G 8G 4G13G29
  -2689822.48847  -2087224.93343  24247957.8984   24247954.7274
  -2723259.17647  -2105146.02344  23404166.0784   23404160.6254
 -11498185.39147  -8948368.86845  22434536.7424   22434531.9844
 -10278889.80147  -7998758.35344  23304188.8984   23304183.0164
 -13988899.78547 -10879396.95945  22927905.7424   22927898.7894
 -23992176.15248 -18686903.83847  20565795.6884   20565790.6844
 -22509071.68448 -17528045.69247  20636094.1644   20636088.8554
 -11768106.00047  -9160464.69545  22924213.8674   22924210.1174
    744177.37546    602118.55143  25405901.4064   25405899.1524
 -23772471.54348 -18502341.14746  20772772.8984   20772767.3554
   1326506.92246   1041130.17143  25355821.6804   25355818.4924
 09  4  4  2 52  0.0000000  0 10G24G16G10G 2G23G 7G25G 8G 4G13
  -2750514.03547  -2134517.03244  24236408.5864   24236405.1374
  -2666108.01647  -2060612.66944  23415041.5394   23415036.4184
 -11584061.62147  -9015285.37845  22418195.3444   22418190.3164
 -10208647.44947  -7944024.07444  23317555.9534   23317549.8914
 -13896474.19947 -10807377.03945  22945492.4304   22945486.2234
 -24032895.10548 -18718632.86847  20558047.1334   20558041.9964
 -22495063.87548 -17517130.51447  20638759.6564   20638754.6254
 -11876442.25447  -9244882.52945  22903598.4844   22903594.5234
    844297.33246    680134.08143  25424954.1334   25424951.0084
 -23720404.93048 -18461769.76746  20782680.5784   20782675.0354
 09  4  4  2 52 30.0000000  0 10G24G16G10G 2G23G 7G25G 8G 4G13
  -2810709.25447  -2181422.34444  24224954.0084   24224950.5864
  -2608458.75447  -2015691.16444  23426011.3524   23426006.4384
 -11669512.30947  -9081870.31545  22401934.6334   22401929.8914
 -10137990.16047  -7888966.46544  23331001.8134   23330995.7194
 -13803837.93047 -10735192.96945  22963120.8284   22963114.1134
 -24073080.13348 -18749945.86847  20550400.4304   20550394.8134
 -22480576.64548 -17505841.75747  20641516.6334   20641511.3834
 -11984532.12547  -9329108.36945  22883029.4304   22883025.3524
    944431.03546    758160.25143  25444008.7194   25444006.7734
 -23667923.82848 -18420875.40246  20792667.4144   20792662.1174
 09  4  4  2 53  0.0000000  0 10G24G16G10G 2G23G 7G25G 8G 4G13
  -2870395.03147  -2227930.71744  24213596.2504   24213592.6414
  -2550301.97347  -1970374.21644  23437078.8054   23437073.3244
 -11754524.35248  -9148113.43645  22385757.5314   22385752.4494
 -10066909.83647  -7833579.24044  23344527.8204   23344522.0664
 -13710981.29747 -10662837.17345  22980790.7274   22980784.3244
 -24112719.76248 -18780833.87547  20542857.3054   20542851.8674
 -22465599.83648 -17494171.51947  20644366.5084   20644361.6294
 -12092362.30547  -9413131.84045  22862509.9304   22862506.1644
   1044587.04746    836203.81043  25463067.1884   25463065.5824
 -23615018.39548 -18379650.40046  20802734.8754   20802729.6644
 09  4  4  2 53 30.0000000  0  9G24G16G10G 2G23G 7G25G 8G13
  -2929567.60247  -2274039.22244  24202335.9924   24202332.5704
  -2491637.86747  -1924661.96444  23448242.3054   23448237.1254
 -11839093.04348  -9214011.10445  22369664.7034   22369659.5314
  -9995407.65247  -7777863.27344  23358133.9774   23358127.9384
 -13617903.83647 -10590309.31845  22998503.2894   22998496.2934
 -24151811.23848 -18811294.76047  20535418.4844   20535412.9224
 -22450132.61748 -17482119.14247  20647309.9614   20647304.9694
 -12199929.16847  -9496950.14345  22842040.6644   22842036.5904
 -23561687.80948 -18338094.09846  20812883.4144   20812878.3164
 09  4  4  2 54  0.0000000  0  9G24G16G10G 2G23G 7G25G 8G13
  -2988223.46547  -2319745.09644  24191174.3674   24191170.4924
  -2432466.85247  -1878554.68044  23459501.9694   23459496.5084
 -11923214.52748  -9279560.29245  22353656.5004   22353652.0824
  -9923484.28947  -7721819.10844  23371820.3444   23371814.4104
 -13524605.16847 -10517609.05845  23016257.2734   23016251.1174
 -24190352.04748 -18841326.54147  20528084.3674   20528078.8094
 -22434174.07048 -17469683.89947  20650346.8914   20650341.8014
 -12307228.97747  -9580560.35045  22821622.0634   22821618.1604
 -23507931.51648 -18296206.07846  20823112.5784   20823107.5744
 09  4  4  2 54 30.0000000  0  9G24G16G10G 2G23G 7G25G 8G13
  -3046353.92247  -2365041.52544  24180112.8914   24180108.7504
  -2372784.05547  -1832048.63544  23470859.1254   23470854.2384
 -12006879.03148  -9344753.40245  22337735.7424   22337730.8284
  -9851135.73047  -7665443.63144  23385588.3204   23385582.1564
 -13431079.73847 -10444732.12745  23034054.9304   23034048.4304
 -24228334.79348 -18870923.47247  20520856.3594   20520850.8444
 -22417718.26248 -17456861.19347  20653477.9844   20653473.1844
 -12414252.71147  -9663955.43145  22801256.0944   22801252.1954
 -23453743.65248 -18253981.77446  20833424.7974   20833419.2894
 09  4  4  2 55  0.0000000  0  9G24G16G10G 2G23G 7G25G 8G13
  -3103953.07047  -2409923.93944  24169151.9454   24169147.9494
  -2312587.90647  -1785142.53944  23482314.4774   23482308.6844
 -12090080.27348  -9409585.51945  22321903.2974   22321898.0434
  -9778361.00847  -7608736.09544  23399436.8834   23399431.0394
 -13337324.94547 -10371676.47645  23051896.3594   23051888.9264
 -24265754.70748 -18900081.82947  20513735.5234   20513730.3914
 -22400762.33648 -17443648.78547  20656704.6564   20656699.5204
 -12520994.96547  -9747131.17645  22780943.8594   22780939.6524
 -23399121.27748 -18211418.89646  20843818.8674   20843813.4104
 09  4  4  2 55 30.0000000  0  9G24G16G10G 2G23G 7G25G 8G13
  -3161019.74247  -2454391.47244  24158291.9454   24158288.4964
  -2251880.97747  -1737838.46244  23493866.7424   23493861.0234
 -12172815.99648  -9474054.90945  22306158.9064   22306153.9804
  -9705163.46547  -7551699.05644  23413365.4844   23413359.7974
 -13243342.71147 -10298443.55845  23069779.0864   23069773.4694
 -24302612.05948 -18928801.82747  20506721.9774   20506716.2624
 -22383307.79348 -17430047.84047  20660026.0944   20660021.0784
 -12627454.05947  -9830086.27645  22760685.1174   22760681.4454
 -23344066.35548 -18168518.95846  20854295.5944   20854290.0164
 09  4  4  2 56  0.0000000  0  9G24G16G10G 2G23G 7G25G 8G13
  -3217559.32847  -2498448.26844  24147532.7504   24147529.5234
  -2190672.86747  -1690143.83744  23505514.4454   23505508.7194
 -12255091.42248  -9538165.61745  22290502.2584   22290497.4534
  -9631553.11747  -7494340.35944  23427373.6954   23427367.7234
 -13149141.34847 -10225039.93745  23087706.2734   23087699.5944
 -24338913.43048 -18957088.57147  20499813.8754   20499808.5124
 -22365362.84048 -17416064.75847  20663440.8204   20663435.7894
 -12733635.16047  -9912824.76645  22740479.5784   22740475.7154
 -23288586.82448 -18125288.15546  20864852.9064   20864847.5394
 09  4  4  2 56 30.0000000  0  9G24G16G10G 2G23G 7G25G 8G13
  -3273571.46947  -2542094.06944  24136873.7814   24136871.0084
  -2128967.43747  -1642061.71544  23517256.4064   23517250.2424
 -12336905.68448  -9601916.97845  22274933.6564   22274928.9964
  -9557534.54347  -7436663.57344  23441458.8834   23441452.6684
 -13054724.22347 -10151468.20145  23105672.5234   23105666.2974
 -24374659.64848 -18984942.76747  20493011.6484   20493006.2664
 -22346930.06648 -17401701.55447  20666948.4614   20666943.2344
 -12839538.05947  -9995346.46145  22720326.4694   22720323.0204
 -23232685.67248 -18081728.82546  20875490.5234   20875485.2974
 09  4  4  2 57  0.0000000  0  9G24G16G10G 2G23G 7G25G 8G13
  -3329058.95747  -2585331.08544  24126315.1564   24126311.8984
  -2066771.37947  -1593597.27744  23529091.2274   23529085.8984
 -12418260.45348  -9665310.28745  22259452.3984   22259447.5864
  -9483115.02047  -7378674.36844  23455620.4304   23455614.5274
 -12960097.24647 -10077732.92345  23123680.1484   23123673.1294
 -24409854.89548 -19012367.61247  20486314.0394   20486308.6214
 -22328014.95748 -17386962.50347  20670547.9384   20670542.9534
 -12945165.26648 -10077653.35145  22700226.4844   22700222.5784
 -23176368.53148 -18037845.34046  20886207.1724   20886202.0234
 09  4  4  2 57 30.0000000  0  9G24G16G10G 2G23G 7G25G 8G13
  -3384030.80947  -2628166.26044  24115854.5864   24115851.2304
  -2004097.16047  -1544760.22744  23541017.7114   23541012.0354
 -12499163.59848  -9728351.68845  22244056.5084   22244052.5044
  -9408308.14547  -7320383.32145  23469855.4304   23469849.5204
 -12865272.21947 -10003843.32045  23141724.9694   23141717.7464
 -24444508.75448 -19039370.61947  20479719.8204   20479714.5124
 -22308629.12148 -17371856.66447  20674237.0234   20674231.8794
 -13050525.39148 -10159752.11645  22680177.8054   22680173.3674
 -23119647.18048 -17993646.89046  20897001.4454   20896995.7894
 09  4  4  2 58  0.0000000  0  9G24G16G10G 2G23G 7G25G 8G13
  -3438493.10547  -2670604.42044  24105490.8674   24105486.8834
  -1940955.44947  -1495558.91144  23553033.7894   23553027.8404
 -12579620.63348  -9791045.47545  22228746.4924   22228742.1334
  -9333124.27047  -7261798.51644  23484162.9064   23484156.8954
 -12770258.49247  -9929806.69245  23159805.8444   23159798.4884
 -24478629.16448 -19065957.92747  20473226.7344   20473221.1214
 -22288781.60248 -17356391.06147  20678013.7194   20678008.8794
 -13155624.63748 -10241647.59145  22660177.3524   22660173.3484
 -23062530.50448 -17949140.38646  20907869.9384   20907864.5984
 09  4  4  2 58 30.0000000  0  9G24G16G10G 2G23G 7G25G 8G13
  -3492439.94147  -2712640.88044  24095224.8984   24095221.0704
  -1877343.89147  -1445991.47044  23565138.1094   23565132.2894
 -12659625.43048  -9853386.86345  22213522.0944   22213517.5824
  -9257562.57447  -7202919.28544  23498541.7734   23498535.6334
 -12675053.20347  -9855620.77644  23177923.3984   23177914.6954
 -24512211.22748 -19092125.76647  20466836.3834   20466830.7544
 -22268469.21948 -17340563.23047  20681879.1414   20681874.2584
 -13260457.14848 -10323335.22945  22640228.8754   22640224.6644
 -23005015.51648 -17904323.51046  20918814.7034   20918809.4614
 09  4  4  2 59  0.0000000  0  9G24G16G10G 2G23G 7G25G 8G13
  -3545867.86747  -2754272.98644  24085057.8284   24085053.9264
  -1813263.29747  -1396058.56344  23577332.9924   23577326.5554
 -12739173.77048  -9915372.59045  22198384.3134   22198379.8794
  -9181624.53947  -7143746.83144  23512992.4844   23512985.9614
 -12579656.17247  -9781285.48044  23196076.5634   23196068.3324
 -24545252.79748 -19117872.42547  20460548.6724   20460543.2154
 -22247691.40648 -17324372.72547  20685833.3204   20685827.8634
 -13365019.07848 -10404812.03345  22620331.0004   22620327.0474
 -22947101.93448 -17859196.04746  20929835.1884   20929830.0784
 09  4  4  2 59 30.0000000  0  9G24G16G10G 2G23G 7G25G 8G13
  -3598773.54747  -2795498.20944  24074990.1484   24074986.4024
  -1748714.32847  -1345760.63844  23589615.5864   23589609.8594
 -12818261.12948  -9976999.07945  22183334.6254   22183330.0434
  -9105310.75847  -7084281.57744  23527513.9614   23527508.4384
 -12484066.95347  -9706800.36044  23214265.3984   23214259.0594
 -24577751.50448 -19143196.08947  20454364.3984   20454358.8674
 -22226447.28548 -17307818.86747  20689875.8284   20689870.6844
 -13469306.50448 -10486074.93845  22600485.9224   22600481.8554
 -22888789.11348 -17813757.48446  20940931.6884   20940926.7894
 09  4  4  3  0  0.0000000  0  9G24G16G10G 2G23G 7G25G 8G13
  -3651154.14547  -2836314.24744  24065022.1644   24065018.0984
  -1683697.80947  -1295098.44244  23601987.1094   23601982.2704
 -12896884.27048 -10038263.85145  22168373.2114   22168368.3594
  -9028623.48047  -7024525.26744  23542107.1724   23542100.8134
 -12388285.73447  -9632165.68644  23232493.7664   23232485.7344
 -24609706.03148 -19168095.71147  20448283.6334   20448278.1914
 -22204737.10548 -17290901.84347  20694007.1334   20694002.2194
 -13573316.60948 -10567121.73945  22580693.8054   22580689.4694
 -22830077.09048 -17768007.85246  20952104.2344   20952099.3674
 09  4  4  3  0 30.0000000  0  9G24G16G10G 2G23G 7G25G 8G13
  -3703011.14547  -2876722.27844  24055154.5944   24055150.2464
  -1618219.46547  -1244076.35844  23614448.1564   23614442.3674
 -12975043.94148 -10099167.47445  22153499.7194   22153495.1524
  -8951568.80147  -6964482.69744  23556770.3594   23556764.4344
 -12292317.33647  -9557385.19444  23250754.3204   23250747.1954
 -24641119.22348 -19192573.52047  20442305.9534   20442300.4964
 -22182565.20348 -17273625.03047  20698226.3054   20698221.4574
 -13677050.86748 -10647953.58245  22560953.5084   22560949.6374
 -22770970.28148 -17721950.60346  20963351.8444   20963346.4064
 09  4  4  3  1  0.0000000  0  9G24G16G10G 2G23G 7G25G 8G13
  -3754342.60947  -2916720.79944  24045386.5164   24045382.8014
  -1552281.25447  -1192695.94244  23626996.2734   23626990.1644
 -13052737.28548 -10159707.73045  22138715.4844   22138710.8874
  -8874148.85247  -6904155.47344  23571502.7974   23571496.7734
 -12196162.74247  -9482459.51844  23269053.0634   23269045.4654
 -24671989.99648 -19216628.65847  20436431.3054   20436426.0004
 -22159931.98048 -17255988.75347  20702533.3204   20702527.9144
 -13780507.03948 -10728568.76945  22541266.4454   22541262.2974
 -22711469.41848 -17675586.29746  20974674.5704   20974669.2384
 09  4  4  3  1 30.0000000  0  9G24G16G10G 2G23G 7G25G 8G13
  -3805143.21947  -2956305.67244  24035719.1024   24035715.0084
  -1485881.75847  -1140956.08844  23639631.1334   23639625.7074
 -13129958.26248 -10219879.90945  22124020.5944   22124015.9774
  -8796363.16047  -6843543.30644  23586304.9844   23586299.1954
 -12099819.31247  -9407386.75244  23287385.1484   23287378.8404
 -24702314.04748 -19240257.78647  20430660.9614   20430655.4964
 -22136834.88348 -17237991.01947  20706928.6254   20706923.3834
 -13883679.55548 -10808962.89645  22521633.4304   22521629.0274
 -22651571.72348 -17628912.77046  20986072.9144   20986067.4304
 09  4  4  3  2  0.0000000  0  9G24G16G10G 2G23G 7G25G 8G13
  -3855413.00047  -2995476.90944  24026153.2974   24026149.5234
  -1419024.78947  -1088859.78344  23652353.2734   23652347.9654
 -13206705.91048 -10279683.25945  22109416.1724   22109411.1294
  -8718216.23047  -6782649.62244  23601175.8984   23601169.8954
 -12003290.04348  -9332169.18244  23305755.3284   23305747.6334
 -24732092.68048 -19263461.90847  20424994.3984   20424988.8284
 -22113276.62948 -17219633.93347  20711411.3914   20711406.2854
 -13986567.84848 -10889135.54645  22502054.0394   22502050.1724
 -22591280.50848 -17581932.59846  20997545.3984   20997540.5594
 09  4  4  3  2 30.0000000  0  9G24G16G10G 2G23G 7G25G 8G13
  -3905148.16847  -3034231.55444  24016688.9844   24016684.9534
  -1351710.36747  -1036406.99844  23665163.6724   23665157.6414
 -13282975.81648 -10339114.35245  22094902.4774   22094897.8404
  -8639708.90247  -6721475.07944  23616115.1884   23616109.4734
 -11906574.22747  -9256806.25344  23324159.6884   23324151.7664
 -24761323.31648 -19286239.02147  20419431.4534   20419426.3674
 -22089256.22748 -17200916.75547  20715982.4774   20715977.0204
 -14089167.99648 -10969083.69545  22482529.7034   22482525.6994
 -22530594.49648 -17534644.80046  21009094.2664   21009088.8754
 09  4  4  3  3  0.0000000  0  9G24G16G10G 2G23G 7G25G 8G13
  -3954349.78947  -3072570.49444  24007326.3444   24007321.9694
  -1283943.44147   -983601.63444  23678058.5704   23678053.5904
 -13358768.08648 -10398173.24545  22080479.7114   22080474.8324
  -8560846.66047  -6660024.04244  23631122.2584   23631116.2074
 -11809675.66847  -9181300.89344  23342598.1254   23342591.1214
 -24790008.50048 -19308591.10847  20413973.3204   20413967.9884
 -22064777.37148 -17181842.31047  20720640.5004   20720635.1804
 -14191480.90648 -11048808.01845  22463060.4534   22463056.5744
 -22469517.48848 -17487052.33046  21020716.4614   21020711.1524
 09  4  4  3  3 30.0000000  0  9G24G16G10G 2G23G 7G25G 8G13
  -4003016.32047  -3110492.43744  23998065.1174   23998061.7894
  -1215726.58247   -930445.63844  23691040.6884   23691034.8524
 -13434080.83648 -10456858.49446  22066148.1174   22066143.5274
  -8481632.73847  -6598298.94844  23646196.2274   23646190.5434
 -11712596.19147  -9105654.59244  23361071.7274   23361064.9774
 -24818147.78548 -19330517.81947  20408618.4614   20408613.0124
 -22039841.29348 -17162411.59747  20725385.7664   20725380.7154
 -14293504.45348 -11128306.84746  22443645.8524   22443642.1954
 -22408050.71548 -17439156.14746  21032413.5164   21032408.0004
 09  4  4  3  4  0.0000000  0  9G24G16G10G 2G23G 7G25G 8G13
  -4051143.44147  -3147994.10944  23988907.1254   23988903.2194
  -1147059.43047   -876938.80944  23704107.2194   23704101.5314
 -13508908.32048 -10515165.62146  22051909.0704   22051904.2894
  -8402066.94147  -6536299.64744  23661337.2734   23661331.5704
 -11615334.15247  -9029866.04344  23379580.3134   23379573.3954
 -24845737.98448 -19352016.67247  20403368.3984   20403363.0784
 -22014446.41048 -17142623.37947  20730218.1724   20730212.8754
 -14395233.99248 -11207576.58146  22424287.1884   22424283.5314
 -22346192.82448 -17390955.20446  21044184.4924   21044178.7854
 09  4  4  3  4 30.0000000  0  9G24G16G10G 2G23G 7G25G 8G13
  -4098732.54747  -3185076.48343  23979851.0704   23979846.8204
  -1077947.31247   -823085.22244  23717258.2274   23717252.9384
 -13583251.58648 -10573095.42446  22037761.9534   22037757.1844
  -8322155.56247  -6474031.09544  23676543.6644   23676537.7154
 -11517894.00847  -8953938.67144  23398123.0164   23398115.5434
 -24872781.84048 -19373089.79747  20398221.8204   20398217.1994
 -21988596.79748 -17122480.82647  20735137.2894   20735132.1884
 -14496670.89148 -11286618.29446  22404984.4454   22404980.8404
 -22283947.82848 -17342452.60446  21056029.1094   21056024.1604
 09  4  4  3  5  0.0000000  0  9G24G16G10G 2G23G 7G25G 8G13
  -4145780.79747  -3221737.42744  23970898.0634   23970894.4454
  -1008391.07847   -768885.56044  23730495.2114   23730489.4924
 -13657106.54348 -10630644.73146  22023707.7894   22023703.1454
  -8241900.10247  -6411494.40044  23691816.1954   23691810.6524
 -11420275.51647  -8877872.35044  23416698.7344   23416691.7814
 -24899277.49648 -19393735.76347  20393180.0084   20393174.6134
 -21962292.10948 -17101983.66847  20740142.9924   20740137.7624
 -14597811.72748 -11365429.31046  22385738.1024   22385734.3674
 -22221315.54748 -17293648.23946  21067947.8204   21067942.7194
 09  4  4  3  5 30.0000000  0  9G24G16G10G 2G23G 7G25G 8G13
  -4192290.28147  -3257978.57343  23962047.6484   23962043.4414
   -938396.60547   -714344.44044  23743814.0474   23743808.6724
 -13730473.95348 -10687814.12346  22009746.2974   22009741.5664
  -8161306.81247  -6348694.45044  23707152.1564   23707146.3554
 -11322483.56247  -8801670.86744  23435307.2034   23435300.8164
 -24925227.68448 -19413956.67847  20388241.7114   20388236.5164
 -21935536.86748 -17081135.42747  20745234.2734   20745229.1024
 -14698658.06248 -11444010.83746  22366547.6414   22366543.5204
 -22158300.41048 -17244545.53946  21079939.3204   21079934.0434
 09  4  4  3  6  0.0000000  0  9G24G16G10G 2G23G 7G25G 8G13
  -4238259.22747  -3293798.54844  23953299.9694   23953296.1054
   -867966.41047   -659463.75244  23757216.8524   23757211.5314
 -13803351.93448 -10744602.14945  21995878.0704   21995873.5394
  -8080378.36346  -6285633.35644  23722552.0784   23722546.7774
 -11224519.19547  -8725335.04844  23453949.3204   23453943.0864
 -24950632.64848 -19433752.75447  20383407.5864   20383402.1684
 -21908332.21148 -17059937.00047  20750411.1954   20750405.8874
 -14799207.98048 -11522361.40846  22347413.6024   22347409.4104
 -22094903.81648 -17195145.60246  21092003.4694   21091997.9734
 09  4  4  3  6 30.0000000  0  9G24G16G10G 2G23G 7G25G 8G13
  -4283681.47747  -3329192.50244  23944656.4224   23944652.3054
   -797097.33247   -604241.10944  23770703.1174   23770697.5084
 -13875733.21948 -10801003.12745  21982104.5474   21982099.9414
  -7999113.34047  -6222309.97444  23738016.6724   23738011.1764
 -11126379.19948  -8648862.35344  23472627.4534   23472618.5824
 -24975487.33648 -19453120.04047  20378677.9384   20378672.2544
 -21880674.42648 -17038385.47247  20755674.3284   20755669.1454
 -14899454.46947 -11600475.52846  22328337.3834   22328333.3324
 -22031122.06648 -17145445.54546  21104140.6884   21104135.1994
 09  4  4  3  7  0.0000000  0  9G24G16G10G 2G23G 7G25G 8G13
  -4328557.71947  -3364160.99043  23936116.8674   23936112.7934
   -725794.51247   -548680.49644  23784270.9774   23784266.6054
 -13947617.50048 -10857016.83945  21968425.1414   21968420.8324
  -7917516.78546  -6158728.29544  23753544.1094   23753538.5204
 -11028067.24647  -8572255.63944  23491332.8444   23491326.9964
 -24999793.39148 -19472059.81347  20374052.4224   20374047.0864
 -21852567.01648 -17016483.59647  20761023.0864   20761017.7074
 -14999398.00448 -11678353.57246  22309318.3444   22309314.5164
 -21966958.53548 -17095448.00046  21116350.5864   21116345.1054
 09  4  4  3  7 30.0000000  0  9G24G16G10G 2G23G 7G25G 8G13
  -4372887.23047  -3398703.44743  23927681.6024   23927677.3834
   -654060.99247   -492784.26744  23797920.9224   23797916.6454
 -14019003.29348 -10912642.11445  21954840.7584   21954836.0704
  -7835592.36347  -6094891.10144  23769133.9774   23769128.1334
 -10929584.85547  -8495516.19044  23510074.1334   23510067.6414
 -25023551.35548 -19490572.50847  20369531.4694   20369526.1334
 -21824011.74248 -16994232.73747  20766456.6804   20766451.8014
 -15099037.49248 -11755994.70046  22290358.0864   22290354.1454
 -21902415.17648 -17045154.48046  21128632.5394   21128627.0434
 09  4  4  3  8  0.0000000  0  9G24G16G10G 2G23G 7G25G 8G13
  -4416668.81247  -3432818.91443  23919349.7974   23919345.6844
   -581899.03947   -436554.23344  23811653.6884   23811648.7424
 -14089888.32048 -10967877.19646  21941351.8594   21941347.1914
  -7753343.11747  -6030800.82044  23784785.4064   23784779.8204
 -10830934.18047  -8418645.58544  23528847.1954   23528839.8984
 -25046760.80548 -19508657.79347  20365114.6414   20365109.4264
 -21795009.80548 -16971633.82447  20771975.8914   20771970.2934
 -15198371.02047 -11833397.41546  22271455.0004   22271451.2814
 -21837493.33248 -16994566.04046  21140986.6954   21140981.5744
 09  4  4  3  8 30.0000000  0  9G24G16G10G 2G23G 7G25G 8G13
  -4459901.05947  -3466506.41144  23911122.5164   23911119.2624
   -509311.37147   -379992.42644  23825466.3914   23825461.1764
 -14160270.43047 -11022720.38446  21927958.3834   21927953.9104
  -7670772.28547  -5966459.94544  23800498.3204   23800492.2584
 -10732115.85947  -8341644.35244  23547651.1724   23547644.7664
 -25069421.88348 -19526315.76847  20360802.5634   20360797.1524
 -21765562.64148 -16948687.98847  20777579.2194   20777574.1334
 -15297396.95747 -11910560.44746  22252611.2034   22252607.2424
 -21772194.21548 -16943683.62446  21153412.9144   21153407.6414
 09  4  4  3  9  0.0000000  0  9G24G16G10G 2G23G 7G25G 8G13
  -4502586.01647  -3499767.37343  23903000.2274   23902996.1484
   -436303.93047   -323103.53444  23839359.7504   23839354.1024
 -14230150.88348 -11077172.65745  21914660.6954   21914656.2154
  -7587886.05547  -5901873.29244  23816271.0704   23816265.4414
 -10633134.82047  -8264516.31244  23566486.7894   23566479.8674
 -25091537.76648 -19543548.91447  20356593.8984   20356588.6024
 -21735674.71148 -16925398.69347  20783266.5314   20783261.8164
 -15396116.79748 -11987484.97746  22233825.7734   22233821.5704
 -21706522.43448 -16892510.81046  21165909.6884   21165904.1954
 09  4  4  3  9 30.0000000  0  9G24G16G10G 2G23G 7G25G 8G13
  -4544718.71547  -3532598.02543  23894982.8594   23894978.8914
   -362875.18447   -265886.34944  23853332.8834   23853326.8284
 -14299523.62148 -11131229.32646  21901459.7114   21901454.9804
  -7504684.04347  -5837040.56944  23832103.9384   23832098.3244
 -10533989.29346  -8187260.06944  23585351.8204   23585347.2344
 -25113104.93448 -19560354.49647  20352489.7974   20352484.3874
 -21705343.84848 -16901764.26047  20789038.4694   20789033.3954
 -15494525.36347 -12064166.94146  22215098.9614   22215094.9614
 -21640476.09848 -16841046.14046  21178478.1094   21178472.4804
 09  4  4  3 10  0.0000000  0  9G24G16G10G 2G23G 7G25G 8G13
  -4586297.96147  -3564997.43144  23887070.1644   23887066.6954
   -289027.69946   -208342.88244  23867384.9844   23867380.1804
 -14368386.57448 -11184888.75246  21888355.3444   21888350.8244
  -7421169.27047  -5771964.15544  23847996.0234   23847990.4574
 -10434680.41847  -8109876.57844  23604252.4924   23604244.8794
 -25134122.69148 -19576731.95347  20348490.4534   20348484.8284
 -21674571.15648 -16877785.53147  20794894.4304   20794889.5234
 -15592620.55147 -12140604.71546  22196432.0704   22196428.0204
 -21574055.77348 -16789290.04846  21191117.5704   21191112.2114
 09  4  4  3 10 30.0000000  0  9G24G16G10G 2G23G 7G25G 8G13
  -4627321.97347  -3596964.19844  23879263.3914   23879259.7274
   -214763.73047   -150474.87244  23881516.3054   23881511.7234
 -14436737.11748 -11238148.90146  21875348.5634   21875343.9264
  -7337344.29347  -5706646.05144  23863947.2194   23863941.4304
 -10335209.25446  -8032366.67044  23623178.7664   23623174.2464
 -25154591.04748 -19592681.32847  20344595.0474   20344589.8244
 -21643357.52748 -16853463.22747  20800833.9144   20800828.8954
 -15690400.27748 -12216796.68846  22177825.2974   22177821.3364
 -21507263.18448 -16737243.88846  21203827.5164   21203822.2624
 09  4  4  3 11  0.0000000  0  9G24G16G10G 2G23G 7G25G 8G13
  -4667791.11747  -3628498.60944  23871561.7034   23871558.5704
   -140087.15247    -92285.39243  23895728.0474   23895722.4614
 -14504574.64848 -11291009.29646  21862439.5234   21862434.8954
  -7253213.77747  -5641089.78344  23879957.1414   23879951.0944
 -10235578.48847  -7954732.29344  23642139.9144   23642132.9844
 -25174511.12548 -19608203.44847  20340804.6024   20340799.2424
 -21611705.77748 -16828799.52947  20806857.0314   20806852.2664
 -15787864.16048 -12292742.53046  22159278.4144   22159274.5394
 -21440100.46148 -16684909.30246  21216608.0784   21216603.1214
 09  4  4  3 11 30.0000000  0  9G24G16G10G 2G23G 7G25G 8G13
  -4707704.93447  -3659600.25444  23863966.9304   23863963.0434
    -65001.13747    -33776.78344  23910015.9844   23910010.3794
 -14571897.44948 -11343468.60746  21849628.6804   21849623.9614
  -7168781.36747  -5575298.33944  23896024.3834   23896018.4024
 -10135790.12146  -7876975.19944  23661127.5234   23661121.4774
 -25193883.51648 -19623298.81847  20337118.1174   20337112.8484
 -21579617.67248 -16803795.81447  20812963.2504   20812958.6054
 -15885011.15648 -12368441.46546  22140791.9924   22140788.0784
 -21372569.72748 -16632287.96046  21229458.6644   21229453.5164
 09  4  4  3 12  0.0000000  0  9G24G16G10G 2G23G 7G25G 8G13
  -4747059.57047  -3690266.16844  23856478.2344   23856474.6024
     10494.30947     25050.79043  23924382.3204   23924377.4414
 -14638700.83248 -11395523.19345  21836916.1414   21836911.1334
  -7084047.84047  -5509272.23544  23912148.0704   23912142.6294
 -10035843.06247  -7799094.36444  23680148.3284   23680141.4184
 -25212705.68748 -19637965.43747  20333536.6804   20333531.4064
 -21547092.07048 -16778451.19247  20819152.5394   20819147.8954
 -15981836.89548 -12443890.06046  22122366.6644   22122362.6484
 -21304669.64548 -16579378.80946  21242379.9384   21242374.8094
 09  4  4  3 12 30.0000000  0  9G24G16G10G 2G23G 7G25G 8G13
  -4785854.67647  -3720496.14143  23849095.3364   23849092.2234
     86395.99247     84194.98244  23938825.8054   23938820.3524
 -14704983.41447 -11447171.95346  21824303.1564   21824298.6334
  -6999016.75047  -5443014.24944  23928329.4144   23928323.4774
  -9935739.66046  -7721091.82044  23699197.6884   23699190.6604
 -25230978.41048 -19652203.92047  20330059.2424   20330053.9534
 -21514131.09848 -16752767.31947  20825425.0164   20825419.9654
 -16078340.45748 -12519087.61546  22104002.3444   22103998.6884
 -21236402.47748 -16526183.62746  21255370.7894   21255365.2624
 09  4  4  3 13  0.0000000  0  9G24G16G10G 2G23G 7G25G 8G13
  -4824089.52746  -3750289.50444  23841819.6254   23841816.2274
    162701.10247    143653.47943  23953346.2114   23953341.2854
 -14770743.48448 -11498413.55646  21811789.4144   21811784.4344
  -6913691.60547  -5376527.15144  23944565.5944   23944560.4184
  -9835481.72747  -7642968.73644  23718274.1644   23718269.5904
 -25248702.07048 -19666014.55047  20326686.7894   20326681.4024
 -21480736.29348 -16726745.39947  20831779.5784   20831775.0314
 -16174520.06648 -12594032.73446  22085700.1334   22085696.1844
 -21167769.82048 -16472703.64146  21268431.0084   21268425.4304
 09  4  4  3 13 30.0000000  0  9G24G16G10G 2G23G 7G25G 8G13
  -4861764.61347  -3779646.70444  23834650.5314   23834646.9494
    239405.34047    203423.00744  23967942.2274   23967937.6764
 -14835980.36748 -11549247.47846  21799375.1094   21799370.1954
  -6828076.94947  -5309814.44844  23960858.2504   23960852.3674
  -9735071.91447  -7564727.35944  23737384.0784   23737376.9224
 -25265878.01648 -19679398.39647  20323418.2974   20323412.6484
 -21446910.69548 -16700387.78547  20838216.7584   20838211.6294
 -16270375.80147 -12668725.49846  22067459.2734   22067454.7974
 -21098774.80948 -16418941.30946  21281560.4304   21281555.1094
 09  4  4  3 14  0.0000000  0 10G24G16G10G 2G23G 7G25G 8G13G 6
  -4898878.57046  -3808566.66243  23827587.8054   23827584.6454
    316506.22347    263501.58144  23982615.0234   23982609.4144
 -14900692.10247 -11599672.20046  21787061.1024   21787056.3834
  -6742175.77047  -5242878.50844  23977204.3284   23977198.9804
  -9634511.62547  -7486368.75944  23756520.0314   23756512.5124
 -25282506.18048 -19692355.40647  20320253.9224   20320248.6174
 -21412655.28148 -16673695.26447  20844735.2584   20844730.2344
 -16365905.59847 -12743164.26846  22049280.7344   22049276.5044
 -21029418.25048 -16364897.24746  21294758.4534   21294752.9304
   3009880.75856   2370972.61153  24615103.5394   24615098.7114
 09  4  4  3 14 30.0000000  0 10G24G16G10G 2G23G 7G25G 8G13G 6
  -4935428.27047  -3837046.92144  23820633.1414   23820629.5904
    394003.48447    323889.05744  23997362.4064   23997356.0124
 -14964874.05547 -11649684.11146  21774847.5084   21774842.7704
  -6655989.46946  -5175720.36344  23993605.0234   23993599.8054
  -9533800.09847  -7407892.33744  23775684.2344   23775676.9774
 -25298584.74248 -19704884.14947  20317194.6174   20317188.8554
 -21377969.36748 -16646667.28547  20851335.4844   20851330.6604
 -16461105.73847 -12817346.17146  22031164.7504   22031160.1914
 -20959699.65648 -16310571.06546  21308025.4454   21308020.4104
   2947648.33246   2322479.89143  24603260.2894   24603256.0864
 09  4  4  3 15  0.0000000  0 10G24G16G10G 2G23G 7G25G 8G13G 6
  -4971413.83247  -3865087.60844  23813784.7344   23813781.3134
    471893.10547    384582.23044  24012184.3134   24012177.9384
 -15028525.47348 -11699282.59946  21762735.0704   21762730.5164
  -6569521.81246  -5108343.00844  24010059.5784   24010054.1644
  -9432939.90247  -7329299.98244  23794875.8914   23794870.4384
 -25314114.65648 -19716985.38147  20314238.9064   20314233.4614
 -21342855.46148 -16619305.79646  20858017.5704   20858012.5944
 -16555975.60548 -12891270.72646  22013111.3674   22013107.2304
 -20889621.11348 -16255964.42046  21321360.7584   21321355.1254
   2885845.08246   2274321.51743  24591500.1254   24591495.8634
 09  4  4  3 15 30.0000000  0 10G24G16G10G 2G23G 7G25G 8G13G 6
  -5006834.11746  -3892687.80144  23807044.7504   23807040.9804
    550173.29347    445579.81744  24027079.9454   24027074.9884
 -15091644.28548 -11748466.07546  21750723.8364   21750719.2624
  -6482775.90646  -5040748.82444  24026566.5864   24026561.2774
  -9331932.28946  -7250592.82444  23814096.8754   23814091.8054
 -25329095.87548 -19728659.05647  20311388.3134   20311382.9414
 -21307314.73448 -16591611.72046  20864780.9774   20864775.9964
 -16650513.25848 -12964936.40746  21995121.7664   21995117.6724
 -20819184.06248 -16201078.40346  21334764.6884   21334759.3594
   2824473.64146   2226499.72643  24579821.2424   24579816.8134
 09  4  4  3 16  0.0000000  0 10G24G16G10G 2G23G 7G25G 8G13G 6
  -5041688.27346  -3919846.89844  23800412.3364   23800408.3444
    628840.97747    506879.26044  24042049.8754   24042044.5044
 -15154228.65248 -11797233.11046  21738814.7734   21738809.8524
  -6395755.28146  -4972940.56944  24043126.3674   24043120.3484
  -9230779.02047  -7171772.13444  23833347.6564   23833341.1484
 -25343528.53148 -19739905.27947  20308641.6724   20308636.4534
 -21271348.83248 -16563586.35347  20871624.9534   20871619.9804
 -16744717.44147 -13038342.24646  21977194.9844   21977190.8244
 -20748390.32848 -16145914.46446  21348236.1804   21348230.8794
   2763535.91046   2179015.76143  24568225.1484   24568221.2424
 09  4  4  3 16 30.0000000  0 10G24G16G10G 2G23G 7G25G 8G13G 6
  -5075976.71147  -3946565.14044  23793886.9224   23793883.6994
    707892.21147    568477.56643  24057093.2114   24057087.8524
 -15216277.66048 -11845582.97146  21727006.9844   21727002.6644
  -6308464.25446  -4904921.62144  24059737.1884   24059731.5124
  -9129482.68747  -7092840.01844  23852624.1024   23852616.6094
 -25357414.55948 -19750725.57347  20305999.1334   20305993.9144
 -21234960.39848 -16535231.73147  20878549.7274   20878544.6604
 -16838587.58648 -13111487.78846  21959332.3284   21959328.2154
 -20677242.55548 -16090474.63946  21361775.2664   21361769.9494
   2703032.77347   2131870.43843  24556712.1024   24556706.4734
 09  4  4  3 17  0.0000000  0 10G24G16G10G 2G23G 7G25G 8G13G 6
  -5109696.84847  -3972840.54644  23787470.8284   23787466.6954
    787325.64547    630373.76044  24072209.4694   24072203.2854
 -15277787.91448 -11893513.05046  21715301.8134   21715297.6564
  -6220904.43046  -4836693.21444  24076399.2504   24076393.4344
  -9028043.16446  -7013796.34844  23871926.6954   23871919.7934
 -25370752.43448 -19761118.71747  20303461.2344   20303455.9064
 -21198149.57848 -16506547.98447  20885554.2194   20885549.3834
 -16932120.94948 -13184370.91746  21941533.3984   21941529.1764
 -20605740.39548 -16034758.68146  21375381.7034   21375376.5044
   2642967.68846   2085066.54043  24545283.1564   24545279.9144
 09  4  4  3 17 30.0000000  0 10G24G16G10G 2G23G 7G25G 8G13G 6
  -5142846.68747  -3998671.59144  23781162.8364   23781158.3954
    867139.97747    692566.75243  24087396.6884   24087391.5394
 -15338756.53148 -11941021.05446  21703700.4144   21703695.8524
  -6133078.12146  -4768257.19844  24093111.6414   24093106.4064
  -8926461.11746  -6934641.53643  23891256.8364   23891250.1134
 -25383541.09448 -19771083.90547  20301027.6644   20301022.0234
 -21160916.38748 -16477535.11347  20892639.7034   20892634.5514
 -17025314.30548 -13256989.10146  21923799.1024   21923795.2234
 -20533884.24648 -15978766.88646  21389055.5004   21389050.5634
   2583344.34847   2038606.71243  24533936.8444   24533930.3164
 09  4  4  3 18  0.0000000  0 10G24G16G10G 2G23G 7G25G 8G13G 6
  -5175426.52347  -4024058.47344  23774962.9614   23774959.1604
    947331.60947    755053.66844  24102657.4454   24102651.0704
 -15399182.50848 -11988106.22746  21692201.3594   21692197.0204
  -6044989.22746  -4699616.51644  24109874.2894   24109868.9064
  -8824738.75046  -6855377.41544  23910612.4534   23910608.0274
 -25395781.75848 -19780622.07947  20298698.3204   20298692.6954
 -21123263.37148 -16448195.09446  20899805.0784   20899800.3244
 -17118166.98448 -13329341.81446  21906129.8204   21906125.7894
 -20461676.33248 -15922500.99346  21402796.2034   21402791.2704
   2524163.58247   1992491.89243  24522675.1174   24522669.6414
 09  4  4  3 18 30.0000000  0 10G24G16G10G 2G23G 7G25G 8G13G 6
  -5207438.63347  -4049002.95644  23768870.6954   23768867.1844
   1027894.66446    817830.10543  24117987.4144   24117981.8754
 -15459067.10248 -12034769.54646  21680805.6334   21680801.1414
  -5956644.13746  -4630776.23944  24126686.2344   24126680.7194
  -8722880.46147  -6776007.35244  23929997.0394   23929990.0704
 -25407477.69548 -19789735.80247  20296472.4384   20296467.2114
 -21085195.03548 -16418531.46146  20907048.8524   20907043.9264
 -17210680.59448 -13401430.32446  21888525.3834   21888521.0124
 -20389121.79748 -15865964.99646  21416602.8364   21416597.5944
   2465424.59446   1946721.26043  24511497.0704   24511491.6484
 09  4  4  3 19  0.0000000  0 10G24G16G10G 2G23G 7G25G 8G13G 6
  -5238879.85547  -4073502.62044  23762887.9454   23762884.3874
   1108828.47346    880895.39143  24133389.4454   24133383.1644
 -15518405.80948 -12081007.49746  21669514.2894   21669509.3164
  -5868044.01646  -4561737.22844  24143546.6564   24143540.8524
  -8620885.87147  -6696531.09644  23949405.8134   23949400.0204
 -25418627.28948 -19798423.79747  20294351.0234   20294345.7234
 -21046710.75048 -16388543.71346  20914372.2194   20914367.0864
 -17302851.33248 -13473251.66046  21870985.8204   21870981.2894
 -20316219.46148 -15809157.99746  21430475.7814   21430470.6414
   2407131.46546   1901298.07843  24500403.6484   24500400.0314
 09  4  4  3 19 30.0000000  0 10G24G16G10G 2G23G 7G25G 8G13G 6
  -5269750.38747  -4097557.54944  23757013.2894   23757009.9024
   1190129.42246    944246.73043  24148859.4304   24148854.1414
 -15577198.18048 -12126819.73246  21658326.0864   21658321.3444
  -5779192.67246  -4492502.46144  24160454.8754   24160448.5434
  -8518757.03947  -6616950.25644  23968840.2814   23968833.5984
 -25429231.37148 -19806686.71447  20292332.8834   20292327.7304
 -21007812.70348 -16358233.54746  20921774.3054   20921769.4694
 -17394678.37948 -13544805.18746  21853511.5164   21853507.2854
 -20242971.78148 -15752081.89646  21444414.1804   21444409.2344
   2349285.47746   1856223.26643  24489395.1024   24489391.6724
 09  4  4  3 20  0.0000000  0 10G24G16G10G 2G23G 7G25G 8G13G 6
  -5300049.71946  -4121167.40544  23751247.2194   23751244.0864
   1271795.57446   1007882.68043  24164400.0314   24164394.6484
 -15635442.55148 -12172204.93246  21647242.6024   21647238.0704
  -5690093.39846  -4423074.49044  24177409.1334   24177403.7074
  -8416495.79746  -6537266.15644  23988299.4774   23988293.4344
 -25439290.52048 -19814524.99947  20290418.5314   20290413.0704
 -20968502.62548 -16327602.31646  20929254.6334   20929249.8674
 -17486159.99648 -13616089.53246  21836103.1094   21836098.7854
 -20169380.23848 -15694737.84146  21458418.6564   21458413.0084
   2291888.41446   1811498.38643  24478473.6414   24478468.8094
 09  4  4  3 20 30.0000000  0 10G24G16G10G 2G23G 7G25G 8G13G 6
  -5329775.17247  -4144330.09644  23745591.0474   23745587.7304
   1353825.17246   1071801.85043  24180009.3754   24180004.3364
 -15693134.90648 -12217160.02846  21636263.9144   21636259.3914
  -5600747.97346  -4353454.73044  24194411.0704   24194405.6684
  -8314101.92647  -6457478.79343  24007784.6804   24007778.6254
 -25448803.10548 -19821937.40747  20288608.5164   20288603.2464
 -20928780.27048 -16296649.83647  20936813.6094   20936808.5594
 -17577293.29748 -13687102.46946  21818761.0084   21818756.9224
 -20095444.61748 -15637125.68546  21472488.0944   21472482.7344
   2234944.19947   1767126.21943  24467637.4614   24467634.0354
 09  4  4  3 21  0.0000000  0 10G24G16G10G 2G23G 7G25G 8G13G 6
  -5358929.99646  -4167048.11444  23740043.2504   23740039.1294
   1436211.98046   1135999.32343  24195686.8204   24195682.6914
 -15750277.32048 -12261686.57146  21625390.4454   21625385.3164
  -5511163.06646  -4283648.37344  24211458.3444   24211453.2464
  -8211580.51647  -6377592.01144  24027294.1094   24027287.2974
 -25457773.37548 -19828927.22147  20286901.5784   20286896.0784
 -20888650.87548 -16265380.18247  20944450.0474   20944444.9184
 -17668080.35548 -13757845.60746  21801484.7424   21801480.2584
 -20021170.12548 -15579249.45546  21486621.7814   21486616.9064
   2178450.90647   1723105.51343  24456887.6094   24456882.6334
 09  4  4  3 21 30.0000000  0 10G24G16G10G 2G23G 7G25G 8G13G 6
  -5387509.92247  -4189318.18244  23734604.3674   23734601.2344
   1518956.75046   1200475.72443  24211433.1644   24211428.4774
 -15806864.30148 -12305780.32946  21614621.9774   21614617.3524
  -5421338.52746  -4213655.26544  24228551.9224   24228546.5234
  -8108929.63347  -6297604.35844  24046827.8914   24046821.5354
 -25466198.30548 -19835492.10647  20285298.1724   20285292.6484
 -20848112.51648 -16233791.85947  20952164.0394   20952159.0474
 -17758515.89148 -13828314.82846  21784275.5474   21784271.3754
 -19946554.87948 -15521107.71946  21500820.7894   21500815.1294
   2122414.16046   1679440.57343  24446224.0944   24446219.4884
 09  4  4  3 22  0.0000000  0 10G24G16G10G 2G23G 7G25G 8G13G 6
  -5415515.41047  -4211140.62444  23729274.9384   23729271.8404
   1602055.51646   1265228.01443  24227247.3204   24227241.5594
 -15862895.09448 -12349440.67946  21603959.5634   21603955.2584
  -5331279.03146  -4143479.09044  24245689.5004   24245683.7734
  -8006151.64847  -6217517.64544  24066386.1564   24066379.7154
 -25474079.11748 -19841632.99647  20283798.7344   20283793.0004
 -20807167.66448 -16201886.77947  20959955.7274   20959950.5354
 -17848599.26648 -13898509.64046  21767133.2734   21767128.5354
 -19871601.29748 -15462702.34046  21515083.9144   21515078.5394
   2066834.98046   1636132.10543  24435647.3914   24435643.6094
 09  4  4  3 22 30.0000000  0 10G24G16G10G 2G23G 7G25G 8G13G 6
  -5442945.02747  -4232514.34644  23724055.4534   23724051.9104
   1685506.55546   1330254.76343  24243127.3914   24243121.4454
 -15918367.67648 -12392666.06846  21593403.5314   21593398.9614
  -5240987.03546  -4073121.75244  24262871.3984   24262866.3444
  -7903247.65246  -6137332.75543  24085967.6174   24085962.0314
 -25481415.69148 -19847349.80247  20282402.5314   20282397.0904
 -20765817.27748 -16169665.69846  20967824.7664   20967819.4414
 -17938328.59048 -13968428.56246  21750058.0234   21750053.9024
 -19796310.18048 -15404033.95346  21529411.0864   21529405.9654
   2011715.73046   1593182.02443  24425158.5784   24425152.6374
 09  4  4  3 23  0.0000000  0 10G24G16G10G 2G23G 7G25G 8G13G 6
  -5469800.22347  -4253440.47144  23718944.9774   23718941.5634
   1769304.88746   1395552.12543  24259073.3834   24259068.4384
 -15973282.39548 -12435456.75646  21582953.6174   21582949.3244
  -5150467.41446  -4002587.02344  24280096.7344   24280091.4614
  -7800221.07446  -6057052.34943  24105573.4694   24105567.3364
 -25488210.38748 -19852644.37247  20281109.4694   20281104.3634
 -20724065.00448 -16137131.46846  20975769.5554   20975764.2664
 -18027704.41048 -14038072.02846  21733050.5474   21733046.2664
 -19720685.17248 -15345105.38546  21543802.2974   21543796.7774
   1957056.26646   1550590.28043  24414757.4844   24414754.0204
 09  4  4  3 23 30.0000000  0 10G24G16G10G 2G23G 7G25G 8G13G 6
  -5496079.75447  -4273918.00144  23713944.2664   23713940.3404
   1853448.27746   1461118.39243  24275085.3444   24275080.1724
 -16027636.76248 -12477810.80746  21572610.3524   21572606.1054
  -5059722.79746  -3931876.96644  24297365.5634   24297359.7304
  -7697072.71146  -5976677.03444  24125202.0554   24125195.5044
 -25494462.79748 -19857516.36747  20279920.1564   20279914.6724
 -20681911.50448 -16104284.58646  20983791.3284   20983786.0164
 -18116724.57448 -14107438.35646  21716110.2344   21716106.0474
 -19644727.32848 -15285917.46846  21558256.6804   21558251.8874
   1902859.41046   1508358.95543  24404444.2894   24404439.6134
 09  4  4  3 24  0.0000000  0 10G24G16G10G 2G23G 7G25G 8G13G 6
  -5521781.90647  -4293945.65644  23709053.2194   23709049.9384
   1937935.55146   1526952.66243  24291162.7734   24291157.5744
 -16081427.69548 -12519725.80446  21562374.5864   21562370.2544
  -4968755.25846  -3860993.24944  24314675.8594   24314670.4384
  -7593803.05947  -5896207.23044  24144853.6564   24144847.4184
 -25500172.49648 -19861965.48447  20278833.3674   20278828.0004
 -20639357.25048 -16071125.43146  20991889.1094   20991883.9924
 -18205385.97348 -14176525.13446  21699238.6254   21699234.4924
 -19568436.39848 -15226469.99746  21572774.3364   21572769.1914
   1849128.10246   1466490.46143  24394218.8054   24394214.0164
 09  4  4  3 24 30.0000000  0 10G24G16G10G 2G23G 7G25G 8G13G 6
  -5546904.01647  -4313521.26544  23704273.0554   23704268.9734
   2022766.24246   1593054.41243  24307305.9924   24307300.0904
 -16134651.35948 -12561198.79246  21552246.3754   21552241.7544
  -4877565.87946  -3789936.59644  24332028.3594   24332023.0984
  -7490411.05546  -5815642.03744  24164528.7584   24164522.2274
 -25505337.69148 -19865990.31847  20277850.5314   20277845.1374
 -20596401.37148 -16037653.31446  21000063.2114   21000057.8914
 -18293684.84848 -14245329.41746  21682436.0704   21682431.8984
 -19491811.85248 -15166762.58046  21587355.2734   21587350.2504
   1795866.70746   1424988.03343  24384083.6724   24384080.8794
 09  4  4  3 25  0.0000000  0 10G24G16G10G 2G23G 7G25G 8G13G 6
  -5571447.24247  -4332645.87244  23699602.4384   23699598.5594
   2107935.67446   1659420.16043  24323512.3984   24323507.2734
 -16187307.85248 -12602229.80746  21542226.0234   21542221.7814
  -4786159.52046  -3718710.93344  24349422.7814   24349417.2544
  -7386899.85947  -5734984.02544  24184226.4144   24184219.3094
 -25509960.21148 -19869592.27047  20276970.7194   20276965.4414
 -20553047.24648 -16003870.89046  21008313.3674   21008308.3834
 -18381621.40248 -14313851.39546  21665702.3914   21665697.9734
 -19414857.23048 -15106797.95046  21601999.3914   21601994.2974
   1743075.31647   1383851.90143  24374038.6804   24374032.2114
 09  4  4  3 25 30.0000000  0 10G24G16G10G 2G23G 7G25G 8G13G 6
  -5595411.93447  -4351319.65444  23695041.8594   23695038.3364
   2193440.13746   1726046.98943  24339784.0004   24339778.6024
 -16239396.09448 -12642818.05246  21532313.9144   21532309.3554
  -4694540.39846  -3647319.48544  24366857.2974   24366851.4264
  -7283271.95746  -5654235.04643  24203946.0474   24203939.2624
 -25514041.66848 -19872772.62147  20276194.0634   20276188.8444
 -20509297.26648 -15969779.99646  21016638.4304   21016633.4064
 -18469195.21948 -14382090.69346  21649037.3594   21649033.2664
 -19337574.62948 -15046577.76046  21616705.8524   21616701.0204
   1690754.72347   1343082.65143  24364081.7504   24364077.9774
 09  4  4  3 26  0.0000000  0 10G24G16G10G 2G23G 7G25G 8G13G 6
  -5618795.68747  -4369540.74044  23690592.5704   23690588.7464
   2279279.13746   1792934.53943  24356118.4454   24356112.7034
 -16290912.80548 -12682960.93546  21522510.4774   21522506.2734
  -4602709.64846  -3575763.08244  24384332.0474   24384326.4264
  -7179527.09046  -5573394.97843  24223687.9614   24223681.1564
 -25517580.21548 -19875529.93847  20275520.9224   20275515.2934
 -20465151.08648 -15935380.37846  21025039.2734   21025034.3874
 -18556402.74648 -14450044.58246  21632442.2664   21632438.4144
 -19259963.65648 -14986101.69246  21631474.7274   21631469.7344
   1638909.04746   1302683.40143  24354215.0784   24354210.6254
 09  4  4  3 26 30.0000000  0 10G24G16G10G 2G23G 7G25G 8G13G 6
  -5641599.72347  -4387310.10044  23686252.7114   23686249.2974
   2365448.49246   1860079.43043  24372516.0784   24372510.3054
 -16341857.50448 -12722658.08946  21512816.1954   21512811.5434
  -4510671.94146  -3504045.49043  24401846.3364   24401840.7934
  -7075668.07045  -5492465.86342  24243451.9694   24243444.6414
 -25520578.30548 -19877866.11747  20274950.3444   20274944.8874
 -20420611.78548 -15900674.43846  21033514.9614   21033509.8954
 -18643243.78948 -14517712.90346  21615917.0084   21615912.7304
 -19182027.32448 -14925372.10446  21646305.6024   21646300.2504
   1587538.16447   1262654.20444  24344440.8364   24344435.9534
 09  4  4  3 27  0.0000000  0 10G24G16G10G 2G23G 7G25G 8G13G 6
  -5663822.51247  -4404626.57344  23682024.1094   23682020.1484
   2451946.14846   1927480.18643  24388975.9454   24388970.3554
 -16392227.86348 -12761907.71146  21503230.8674   21503226.4264
  -4418429.71546  -3432168.44644  24419399.9304   24419393.9774
                                  24263236.133
 -25523035.18748 -19879780.56547  20274482.6094   20274477.4264
 -20375679.92248 -15865662.60146  21042065.3054   21042060.4264
 -18729716.01248 -14585093.83346  21599462.0864   21599457.5864
 -19103766.29348 -14864389.49346  21661198.1954   21661193.0394
   1536645.28146   1222997.37243  24334755.1564   24334751.1804
 09  4  4  3 27 30.0000000  0  9G24G16G10G 2G 7G25G 8G13G 6
  -5685466.56247  -4421492.07244  23677905.1414   23677901.3754
   2538765.98046   1995131.98743  24405497.3754   24405491.4454
 -16442025.64548 -12800711.17846  21493754.7664   21493750.3014
  -4325989.40646  -3360137.10744  24436990.2194   24436984.6024
 -25524954.79748 -19881276.36447  20274117.4694   20274111.9414
 -20330360.21948 -15830348.55146  21050689.3984   21050684.4104
 -18815821.12948 -14652188.70346  21583076.7664   21583072.7344
 -19025185.28548 -14803157.55946  21676151.8524   21676146.4454
   1486228.69147   1183711.74543  24325161.9534   24325156.9574
 09  4  4  3 28  0.0000000  0  9G24G16G10G 2G 7G25G 8G13G 6
  -5706528.55547  -4437903.99844  23673897.1564   23673893.7584
   2625909.09447   2063035.81143  24422080.6954   24422074.6724
 -16491245.88748 -12839064.60446  21484388.5394   21484383.9184
  -4233351.20747  -3287951.52544  24454618.8594   24454613.1684
 -25526334.66448 -19882351.59347  20273854.8914   20273849.4924
 -20284651.14148 -15794731.09447  21059387.5164   21059382.3674
 -18901554.20348 -14718993.67446  21566762.5394   21566757.8324
 -18946282.64148 -14741674.99246  21691166.0634   21691161.1214
   1436293.45346   1144801.22543  24315659.1094   24315655.4414
 09  4  4  3 28 30.0000000  0  9G24G16G10G 2G 7G25G 8G13G 6
  -5727008.98047  -4453862.75044  23669999.5394   23669995.9304
   2713371.01646   2131187.92443  24438723.1564   24438718.0234
 -16539888.01648 -12876967.55846  21475132.0944   21475127.5004
  -4140519.04747  -3215614.84343  24472284.3054   24472278.6644
 -25527176.01648 -19883007.18647  20273694.8754   20273689.3634
 -20238555.11348 -15758812.12146  21068159.0634   21068154.3954
 -18986914.87148 -14785508.45346  21550518.7344   21550514.0984
 -18867060.37148 -14679943.36746  21706241.6884   21706236.6644
   1386840.47747   1106266.38543  24306249.3054   24306244.8054
 09  4  4  3 29  0.0000000  0  9G24G16G10G 2G 7G25G 8G13G 6
  -5746908.28547  -4469368.70744  23666213.5784   23666209.2464
   2801149.00046   2199586.30943  24455427.4224   24455421.0274
 -16587951.02748 -12914419.24346  21465986.0634   21465981.8524
  -4047496.84447  -3143130.07244  24489986.1644   24489980.1564
 -25527480.05948 -19883244.10347  20273636.7034   20273631.6914
 -20192074.46948 -15722593.43746  21077004.0314   21076999.3984
 -19071902.60248 -14851732.64146  21534345.8444   21534341.5594
 -18787521.42248 -14617964.98246  21721377.6414   21721372.6484
   1337870.69147   1068108.19843  24296930.7894   24296926.7584
 09  4  4  3 29 30.0000000  0  9G24G16G10G 2G 7G25G 8G13G 6
  -5766223.68047  -4484419.66944  23662537.7664   23662534.1764
   2889242.50046   2268230.63343  24472190.3914   24472184.7894
 -16635431.07048 -12951416.67446  21456950.7664   21456946.3484
  -3954285.32047  -3070497.75643  24507723.6954   24507718.2384
 -25527244.93048 -19883060.88347  20273681.9144   20273676.1644
 -20145208.19148 -15686074.26846  21085922.3834   21085917.2624
 -19156513.05548 -14917662.83946  21518245.1804   21518240.4884
 -18707664.59848 -14555738.90246  21736573.9454   21736568.7584
   1289388.53946   1030329.89143  24287703.9694   24287699.1764
 09  4  4  3 30  0.0000000  0  9G24G16G10G 2G 7G25G 8G13G 6
  -5784958.59047  -4499018.27744  23658972.5084   23658968.8324
   2977645.01246   2337115.62943  24489012.6954   24489007.6454
 -16682330.65248 -12987961.79446  21448026.3524   21448021.6844
  -3860891.47346  -2997723.37143  24525495.7034   24525490.3874
 -25526475.17248 -19882461.07347  20273828.1884   20273822.8554
 -20097961.73848 -15649258.84946  21094913.1564   21094908.0434
 -19240748.55148 -14983300.86646  21502215.5944   21502210.7814
 -18627494.97348 -14493269.08046  21751829.6484   21751824.2034
   1241391.69547    992929.77743  24278570.9144   24278566.9734
 09  4  4  3 30 30.0000000  0  9G24G16G10G 2G 7G25G 8G13G 6
  -5803111.19947  -4513163.17444  23655518.2504   23655514.2194
   3066355.56646   2406240.72843  24505893.9774   24505888.7854
 -16728646.10948 -13024051.75346  21439212.8204   21439208.0234
  -3767317.07446  -2924808.37143  24543302.5784   24543296.9224
 -25525169.71948 -19881443.83747  20274076.4694   20274071.1564
 -20050335.13748 -15612147.21746  21103976.2974   21103970.9734
 -19324606.12148 -15048644.40746  21486258.1414   21486253.2624
 -18547012.66848 -14430555.60745  21767144.8204   21767139.9264
   1193883.65246    955910.51243  24269529.9304   24269525.8244
 09  4  4  3 31  0.0000000  0  9G24G16G10G 2G 7G25G 8G13G 6
  -5820683.01247  -4526855.48044  23652174.2504   23652170.4774
   3155368.85246   2475601.73243  24522832.2344   24522827.2274
 -16774378.43748 -13059687.31246  21430510.1644   21430505.5474
  -3673567.27746  -2851756.65743  24561142.2894   24561137.2074
 -25523331.25848 -19880011.26847  20274426.5634   20274421.0204
 -20002331.84048 -15574742.04746  21113110.7664   21113105.8554
 -19408086.10548 -15113693.73646  21470372.6334   21470367.9184
 -18466221.39148 -14367601.37246  21782518.6884   21782513.5984
   1146864.01246    919271.84143  24260583.0004   24260578.0474
 09  4  4  3 31 30.0000000  0  9G24G16G10G 2G 7G25G 8G13G 6
  -5837670.87147  -4540092.76944  23648941.5234   23648937.9844
   3244685.54746   2545199.10743  24539828.4614   24539824.0984
 -16819523.10248 -13094864.97446  21421919.3594   21421915.0704
  -3579642.09846  -2778568.25143  24579015.8754   24579010.1914
 -25520957.00448 -19878161.19347  20274878.2894   20274872.8524
 -19953950.33648 -15537042.18346  21122317.8284   21122312.7234
 -19491184.05948 -15178445.36646  21454559.2894   21454554.7974
 -18385119.10948 -14304404.79445  21797952.5474   21797947.0314
   1100337.61746    883017.56743  24251728.6804   24251725.6604
 09  4  4  3 32  0.0000000  0 10G24G16G10G 2G 7G25G 8G 3G13G 6
  -5854073.19947  -4552873.78744  23645820.1414   23645816.7074
   3334304.13346   2615031.74443  24556882.8984   24556878.0164
 -16864076.96148 -13129582.26646  21413441.0004   21413436.6094
  -3485543.39546  -2705244.62243  24596922.4534   24596917.0004
 -25518046.54748 -19875893.30947  20275432.0084   20275426.6644
 -19905190.98448 -15499047.88346  21131596.3054   21131590.8444
 -19573897.41448 -15242897.30146  21438819.4844   21438815.0164
   3012809.64857   2366273.71853  23750181.2114   23750176.2504
 -18303706.29748 -14240966.25245  21813444.6334   21813439.4184
   1054307.32847    847149.77343  24242969.2504   24242963.9494
 09  4  4  3 32 30.0000000  0 10G24G16G10G 2G 7G25G 8G 3G13G 6
  -5869891.38347  -4565199.64644  23642810.0944   23642806.4574
   3424220.59046   2685096.45143  24573992.9774   24573988.4924
 -16908040.03148 -13163839.19346  21405075.0084   21405070.3794
  -3391275.56246  -2631789.29243  24614861.2274   24614855.9064
 -25514601.89548 -19873209.16147  20276087.6414   20276082.4024
 -19856056.65248 -15460761.39646  21140946.1954   21140941.1024
 -19656225.73048 -15307049.22546  21423152.5784   21423148.3164
   2947645.83647   2315496.77044  23737781.2504   23737776.8674
 -18221985.71948 -14177287.88445  21828995.4304   21828990.2464
   1008773.53546    811668.91243  24234304.1644   24234301.8134
 09  4  4  3 33  0.0000000  0 10G24G16G10G 2G 7G25G 8G 3G13G 6
  -5885126.82047  -4577071.42644  23639910.9384   23639907.4384
   3514430.71146   2755390.02643  24591160.4384   24591154.7814
 -16951412.90648 -13197636.23746  21396821.6884   21396816.9264
  -3296843.67646  -2558206.05543  24632830.5634   24632825.6294
 -25510625.52048 -19870110.68547  20276844.2894   20276838.5314
 -19806550.73448 -15422185.35646  21150366.7344   21150361.8054
 -19738169.60948 -15370901.58446  21407559.3914   21407554.9534
   2882978.95347   2265107.03543  23725475.2664   23725470.9264
 -18139960.74648 -14113372.32345  21844604.3444   21844599.1414
    963736.12146    776574.86643  24225734.1484   24225729.5164
 09  4  4  3 33 30.0000000  0 10G24G16G10G 2G 7G25G 8G 3G13G 6
  -5899780.92247  -4588490.17144  23637122.4304   23637118.8134
   3604930.05546   2825908.96343  24608381.1884   24608376.2194
 -16994195.63348 -13230973.41246  21388680.1414   21388675.5634
  -3202252.69946  -2484498.89643  24650830.7734   24650825.5314
 -25506119.58248 -19866599.55947  20277701.5864   20277696.0864
 -19756676.32848 -15383322.18446  21159857.7974   21159852.4734
 -19819729.03948 -15434454.36546  21392038.7974   21392034.8364
   2818810.07847   2215105.32643  23713264.1024   23713259.5634
 -18057634.55148 -14049222.05346  21860270.6564   21860265.4534
    919195.06646    741867.49843  24217258.0864   24217254.8794
